{
"type": "FeatureCollection",
"features": [
{ "type": "Feature", "properties": { "city": "Massena", "latitude": 44.9213, "longitude": -74.89021, "name": "McDonald's", "province": "NY" }, "geometry": { "type": "Point", "coordinates": [ -74.89021, 44.9213 ] } },
{ "type": "Feature", "properties": { "city": "Washington Court House", "latitude": 39.53255, "longitude": -83.44526, "name": "Wendy's", "province": "OH" }, "geometry": { "type": "Point", "coordinates": [ -83.44526, 39.53255 ] } },
{ "type": "Feature", "properties": { "city": "Maysville", "latitude": 38.62736, "longitude": -83.79141, "name": "Frisch's Big Boy", "province": "KY" }, "geometry": { "type": "Point", "coordinates": [ -83.79141, 38.62736 ] } },
{ "type": "Feature", "properties": { "city": "Massena", "latitude": 44.95008, "longitude": -74.84553, "name": "McDonald's", "province": "NY" }, "geometry": { "type": "Point", "coordinates": [ -74.84553, 44.95008 ] } },
{ "type": "Feature", "properties": { "city": "Athens", "latitude": 39.35155, "longitude": -82.09728, "name": "OMG! Rotisserie", "province": "OH" }, "geometry": { "type": "Point", "coordinates": [ -82.09728, 39.35155 ] } },
{ "type": "Feature", "properties": { "city": "Hamilton", "latitude": 39.4176, "longitude": -84.47641, "name": "Domino's Pizza", "province": "OH" }, "geometry": { "type": "Point", "coordinates": [ -84.47641, 39.4176 ] } },
{ "type": "Feature", "properties": { "city": "Englewood", "latitude": 39.86969, "longitude": -84.29358, "name": "Domino's Pizza", "province": "OH" }, "geometry": { "type": "Point", "coordinates": [ -84.29358, 39.86969 ] } },
{ "type": "Feature", "properties": { "city": "Saluda", "latitude": 34.00598, "longitude": -81.7704, "name": "McDonald's", "province": "SC" }, "geometry": { "type": "Point", "coordinates": [ -81.7704, 34.00598 ] } },
{ "type": "Feature", "properties": { "city": "Batesburg", "latitude": 33.91335, "longitude": -81.5333, "name": "Wendy's", "province": "SC" }, "geometry": { "type": "Point", "coordinates": [ -81.5333, 33.91335 ] } },
{ "type": "Feature", "properties": { "city": "Paragould", "latitude": 36.06107, "longitude": -90.52325, "name": "Pizza Hut", "province": "AR" }, "geometry": { "type": "Point", "coordinates": [ -90.52325, 36.06107 ] } },
{ "type": "Feature", "properties": { "city": "Sheridan", "latitude": 34.30687, "longitude": -92.40784, "name": "SONIC Drive In", "province": "AR" }, "geometry": { "type": "Point", "coordinates": [ -92.40784, 34.30687 ] } },
{ "type": "Feature", "properties": { "city": "Monticello", "latitude": 33.61937, "longitude": -91.80232, "name": "Domino's Pizza", "province": "AR" }, "geometry": { "type": "Point", "coordinates": [ -91.80232, 33.61937 ] } },
{ "type": "Feature", "properties": { "city": "Oklahoma City", "latitude": 35.52234, "longitude": -97.5382, "name": "McDonald's", "province": "OK" }, "geometry": { "type": "Point", "coordinates": [ -97.5382, 35.52234 ] } },
{ "type": "Feature", "properties": { "city": "Lexington", "latitude": 38.06753, "longitude": -84.53043, "name": "Domino's Pizza", "province": "KY" }, "geometry": { "type": "Point", "coordinates": [ -84.53043, 38.06753 ] } },
{ "type": "Feature", "properties": { "city": "Tell City", "latitude": 37.941032, "longitude": -86.762115, "name": "Long John Silver's", "province": "IN" }, "geometry": { "type": "Point", "coordinates": [ -86.762115, 37.941032 ] } },
{ "type": "Feature", "properties": { "city": "Louisville", "latitude": 38.21999, "longitude": -85.764824, "name": "McDonald's", "province": "KY" }, "geometry": { "type": "Point", "coordinates": [ -85.764824, 38.21999 ] } },
{ "type": "Feature", "properties": { "city": "Oklahoma City", "latitude": 35.54815, "longitude": -97.61717, "name": "McDonald's", "province": "OK" }, "geometry": { "type": "Point", "coordinates": [ -97.61717, 35.54815 ] } },
{ "type": "Feature", "properties": { "city": "Leland", "latitude": 34.23389, "longitude": -77.99544, "name": "Taco Bell", "province": "NC" }, "geometry": { "type": "Point", "coordinates": [ -77.99544, 34.23389 ] } },
{ "type": "Feature", "properties": { "city": "Leland", "latitude": 34.21188, "longitude": -78.02454, "name": "McDonald's", "province": "NC" }, "geometry": { "type": "Point", "coordinates": [ -78.02454, 34.21188 ] } },
{ "type": "Feature", "properties": { "city": "Brentwood", "latitude": 36.04222, "longitude": -86.77995, "name": "Qdoba Mexican Grill", "province": "TN" }, "geometry": { "type": "Point", "coordinates": [ -86.77995, 36.04222 ] } },
{ "type": "Feature", "properties": { "city": "Leland", "latitude": 34.234477, "longitude": -78.000649, "name": "McDonald's", "province": "NC" }, "geometry": { "type": "Point", "coordinates": [ -78.000649, 34.234477 ] } },
{ "type": "Feature", "properties": { "city": "Hardinsburg", "latitude": 37.792641, "longitude": -86.492762, "name": "McDonald's", "province": "KY" }, "geometry": { "type": "Point", "coordinates": [ -86.492762, 37.792641 ] } },
{ "type": "Feature", "properties": { "city": "Wichita Falls", "latitude": 33.85371, "longitude": -98.50065, "name": "McDonald's", "province": "TX" }, "geometry": { "type": "Point", "coordinates": [ -98.50065, 33.85371 ] } },
{ "type": "Feature", "properties": { "city": "South Padre Island", "latitude": 26.09105, "longitude": -97.1643, "name": "McDonald's", "province": "TX" }, "geometry": { "type": "Point", "coordinates": [ -97.1643, 26.09105 ] } },
{ "type": "Feature", "properties": { "city": "Miami", "latitude": 36.88826, "longitude": -94.87766, "name": "McDonald's", "province": "OK" }, "geometry": { "type": "Point", "coordinates": [ -94.87766, 36.88826 ] } },
{ "type": "Feature", "properties": { "city": "Pineville", "latitude": 31.3626, "longitude": -92.41343, "name": "Pizza Hut", "province": "LA" }, "geometry": { "type": "Point", "coordinates": [ -92.41343, 31.3626 ] } },
{ "type": "Feature", "properties": { "city": "Bastrop", "latitude": 32.77992, "longitude": -91.89477, "name": "Sonic Drive-In", "province": "LA" }, "geometry": { "type": "Point", "coordinates": [ -91.89477, 32.77992 ] } },
{ "type": "Feature", "properties": { "city": "Claremore", "latitude": 36.31069, "longitude": -95.61759, "name": "Domino's Pizza", "province": "OK" }, "geometry": { "type": "Point", "coordinates": [ -95.61759, 36.31069 ] } },
{ "type": "Feature", "properties": { "city": "Minerva", "latitude": 40.732, "longitude": -81.09812, "name": "McDonald's", "province": "OH" }, "geometry": { "type": "Point", "coordinates": [ -81.09812, 40.732 ] } },
{ "type": "Feature", "properties": { "city": "Leavenworth", "latitude": 39.28532, "longitude": -94.90441, "name": "SONIC Drive In", "province": "KS" }, "geometry": { "type": "Point", "coordinates": [ -94.90441, 39.28532 ] } },
{ "type": "Feature", "properties": { "city": "Jamestown", "latitude": 46.898997, "longitude": -98.707788, "name": "Taco Bell", "province": "ND" }, "geometry": { "type": "Point", "coordinates": [ -98.707788, 46.898997 ] } },
{ "type": "Feature", "properties": { "city": "Fargo", "latitude": 46.85659, "longitude": -96.79863, "name": "Domino's Pizza", "province": "ND" }, "geometry": { "type": "Point", "coordinates": [ -96.79863, 46.85659 ] } },
{ "type": "Feature", "properties": { "city": "Jamestown", "latitude": 46.89896, "longitude": -98.6984, "name": "Taco John's", "province": "ND" }, "geometry": { "type": "Point", "coordinates": [ -98.6984, 46.89896 ] } },
{ "type": "Feature", "properties": { "city": "Minot", "latitude": 48.20858, "longitude": -101.3128, "name": "McDonald's", "province": "ND" }, "geometry": { "type": "Point", "coordinates": [ -101.3128, 48.20858 ] } },
{ "type": "Feature", "properties": { "city": "Woodville", "latitude": 30.76846, "longitude": -94.41477, "name": "Whataburger", "province": "TX" }, "geometry": { "type": "Point", "coordinates": [ -94.41477, 30.76846 ] } },
{ "type": "Feature", "properties": { "city": "Minot", "latitude": 48.219459, "longitude": -101.296022, "name": "Pizza Hut", "province": "ND" }, "geometry": { "type": "Point", "coordinates": [ -101.296022, 48.219459 ] } },
{ "type": "Feature", "properties": { "city": "Smithfield", "latitude": 41.82069, "longitude": -111.83318, "name": "Domino's Pizza", "province": "UT" }, "geometry": { "type": "Point", "coordinates": [ -111.83318, 41.82069 ] } },
{ "type": "Feature", "properties": { "city": "Ada", "latitude": 34.77482, "longitude": -96.68126, "name": "Hamburger King", "province": "OK" }, "geometry": { "type": "Point", "coordinates": [ -96.68126, 34.77482 ] } },
{ "type": "Feature", "properties": { "city": "Broken Arrow", "latitude": 36.01948, "longitude": -95.79756, "name": "SONIC Drive In", "province": "OK" }, "geometry": { "type": "Point", "coordinates": [ -95.79756, 36.01948 ] } },
{ "type": "Feature", "properties": { "city": "Norman", "latitude": 35.18173, "longitude": -97.41709, "name": "Domino's Pizza", "province": "OK" }, "geometry": { "type": "Point", "coordinates": [ -97.41709, 35.18173 ] } },
{ "type": "Feature", "properties": { "city": "Warner Robins", "latitude": 32.59495, "longitude": -83.58338, "name": "Burger King", "province": "GA" }, "geometry": { "type": "Point", "coordinates": [ -83.58338, 32.59495 ] } },
{ "type": "Feature", "properties": { "city": "Albuquerque", "latitude": 35.144456, "longitude": -106.585927, "name": "Burger King", "province": "NM" }, "geometry": { "type": "Point", "coordinates": [ -106.585927, 35.144456 ] } },
{ "type": "Feature", "properties": { "city": "El Paso", "latitude": 31.77465, "longitude": -106.38071, "name": "McDonalds", "province": "TX" }, "geometry": { "type": "Point", "coordinates": [ -106.38071, 31.77465 ] } },
{ "type": "Feature", "properties": { "city": "Shawnee", "latitude": 35.33252, "longitude": -96.91222, "name": "SONIC Drive In", "province": "OK" }, "geometry": { "type": "Point", "coordinates": [ -96.91222, 35.33252 ] } },
{ "type": "Feature", "properties": { "city": "Portland", "latitude": 45.457027, "longitude": -122.713696, "name": "Taco Time", "province": "OR" }, "geometry": { "type": "Point", "coordinates": [ -122.713696, 45.457027 ] } },
{ "type": "Feature", "properties": { "city": "Ashland", "latitude": 38.48554, "longitude": -82.658096, "name": "McDonald's", "province": "KY" }, "geometry": { "type": "Point", "coordinates": [ -82.658096, 38.48554 ] } },
{ "type": "Feature", "properties": { "city": "Cleveland", "latitude": 41.373042, "longitude": -81.826072, "name": "Burger King", "province": "OH" }, "geometry": { "type": "Point", "coordinates": [ -81.826072, 41.373042 ] } },
{ "type": "Feature", "properties": { "city": "Evansville", "latitude": 38.01322, "longitude": -87.57549, "name": "McDonald's", "province": "IN" }, "geometry": { "type": "Point", "coordinates": [ -87.57549, 38.01322 ] } },
{ "type": "Feature", "properties": { "city": "Waxahachie", "latitude": 32.41269, "longitude": -96.84213, "name": "Jimmy John's", "province": "TX" }, "geometry": { "type": "Point", "coordinates": [ -96.84213, 32.41269 ] } },
{ "type": "Feature", "properties": { "city": "Oklahoma City", "latitude": 35.32026, "longitude": -97.50536, "name": "Domino's Pizza", "province": "OK" }, "geometry": { "type": "Point", "coordinates": [ -97.50536, 35.32026 ] } },
{ "type": "Feature", "properties": { "city": "Mililani", "latitude": 21.45311, "longitude": -158.01738, "name": "Jersey Mike's Subs", "province": "HI" }, "geometry": { "type": "Point", "coordinates": [ -158.01738, 21.45311 ] } },
{ "type": "Feature", "properties": { "city": "Jeffersonville", "latitude": 38.32967, "longitude": -85.74938, "name": "Popeyes Louisiana Kitchen", "province": "IN" }, "geometry": { "type": "Point", "coordinates": [ -85.74938, 38.32967 ] } },
{ "type": "Feature", "properties": { "city": "Louisville", "latitude": 38.21234, "longitude": -85.59548, "name": "Qdoba Mexican Grill", "province": "KY" }, "geometry": { "type": "Point", "coordinates": [ -85.59548, 38.21234 ] } },
{ "type": "Feature", "properties": { "city": "Salem", "latitude": 44.87205, "longitude": -123.02243, "name": "Domino's Pizza", "province": "OR" }, "geometry": { "type": "Point", "coordinates": [ -123.02243, 44.87205 ] } },
{ "type": "Feature", "properties": { "city": "San Antonio", "latitude": 29.4033, "longitude": -98.70619, "name": "Whataburger", "province": "TX" }, "geometry": { "type": "Point", "coordinates": [ -98.70619, 29.4033 ] } },
{ "type": "Feature", "properties": { "city": "Louisville", "latitude": 38.26897, "longitude": -85.61074, "name": "Qdoba Mexican Grill", "province": "KY" }, "geometry": { "type": "Point", "coordinates": [ -85.61074, 38.26897 ] } },
{ "type": "Feature", "properties": { "city": "Bennington", "latitude": 42.89413, "longitude": -73.20316, "name": "Taco Bell", "province": "VT" }, "geometry": { "type": "Point", "coordinates": [ -73.20316, 42.89413 ] } },
{ "type": "Feature", "properties": { "city": "Austin", "latitude": 30.22023, "longitude": -97.83528, "name": "Whataburger", "province": "TX" }, "geometry": { "type": "Point", "coordinates": [ -97.83528, 30.22023 ] } },
{ "type": "Feature", "properties": { "city": "Austin", "latitude": 30.16525, "longitude": -97.78887, "name": "Whataburger", "province": "TX" }, "geometry": { "type": "Point", "coordinates": [ -97.78887, 30.16525 ] } },
{ "type": "Feature", "properties": { "city": "Iron Mountain", "latitude": 45.825755, "longitude": -88.063121, "name": "Hardee's", "province": "MI" }, "geometry": { "type": "Point", "coordinates": [ -88.063121, 45.825755 ] } },
{ "type": "Feature", "properties": { "city": "Hickory", "latitude": 35.75332, "longitude": -81.28572, "name": "McDonald's", "province": "NC" }, "geometry": { "type": "Point", "coordinates": [ -81.28572, 35.75332 ] } },
{ "type": "Feature", "properties": { "city": "Saint Louis", "latitude": 38.72914, "longitude": -90.34394, "name": "Rally's", "province": "MO" }, "geometry": { "type": "Point", "coordinates": [ -90.34394, 38.72914 ] } },
{ "type": "Feature", "properties": { "city": "Mandeville", "latitude": 30.41178, "longitude": -90.04186, "name": "Quiznos", "province": "LA" }, "geometry": { "type": "Point", "coordinates": [ -90.04186, 30.41178 ] } },
{ "type": "Feature", "properties": { "city": "Auburn", "latitude": 42.94987, "longitude": -76.54722, "name": "Burger King", "province": "NY" }, "geometry": { "type": "Point", "coordinates": [ -76.54722, 42.94987 ] } },
{ "type": "Feature", "properties": { "city": "Richmond", "latitude": 29.55941, "longitude": -95.76008, "name": "Whataburger", "province": "TX" }, "geometry": { "type": "Point", "coordinates": [ -95.76008, 29.55941 ] } },
{ "type": "Feature", "properties": { "city": "Green Bay", "latitude": 44.51312, "longitude": -87.96051, "name": "Domino's Pizza", "province": "WI" }, "geometry": { "type": "Point", "coordinates": [ -87.96051, 44.51312 ] } },
{ "type": "Feature", "properties": { "city": "Maumelle", "latitude": 34.84808, "longitude": -92.40624, "name": "SONIC Drive In", "province": "AR" }, "geometry": { "type": "Point", "coordinates": [ -92.40624, 34.84808 ] } },
{ "type": "Feature", "properties": { "city": "Sullivan", "latitude": 38.22303, "longitude": -91.15696, "name": "Taco Bell", "province": "MO" }, "geometry": { "type": "Point", "coordinates": [ -91.15696, 38.22303 ] } },
{ "type": "Feature", "properties": { "city": "Memphis", "latitude": 35.22655, "longitude": -89.84786, "name": "Domino's Pizza", "province": "TN" }, "geometry": { "type": "Point", "coordinates": [ -89.84786, 35.22655 ] } },
{ "type": "Feature", "properties": { "city": "Yakima", "latitude": 46.57144, "longitude": -120.48825, "name": "Taco Bell", "province": "WA" }, "geometry": { "type": "Point", "coordinates": [ -120.48825, 46.57144 ] } },
{ "type": "Feature", "properties": { "city": "Branson", "latitude": 36.65075, "longitude": -93.22026, "name": "Jimmy John's", "province": "MO" }, "geometry": { "type": "Point", "coordinates": [ -93.22026, 36.65075 ] } },
{ "type": "Feature", "properties": { "city": "Springdale", "latitude": 36.182436, "longitude": -94.138658, "name": "Taco Bell", "province": "AR" }, "geometry": { "type": "Point", "coordinates": [ -94.138658, 36.182436 ] } },
{ "type": "Feature", "properties": { "city": "La Vergne", "latitude": 36.02074, "longitude": -86.5812, "name": "Domino's Pizza", "province": "TN" }, "geometry": { "type": "Point", "coordinates": [ -86.5812, 36.02074 ] } },
{ "type": "Feature", "properties": { "city": "Brusly", "latitude": 30.387691, "longitude": -91.25265, "name": "McDonald's", "province": "LA" }, "geometry": { "type": "Point", "coordinates": [ -91.25265, 30.387691 ] } },
{ "type": "Feature", "properties": { "city": "Fayetteville", "latitude": 34.9297, "longitude": -78.85668, "name": "Domino's Pizza", "province": "NC" }, "geometry": { "type": "Point", "coordinates": [ -78.85668, 34.9297 ] } },
{ "type": "Feature", "properties": { "city": "Bronx", "latitude": 40.8691, "longitude": -73.8248, "name": "Burger King", "province": "NY" }, "geometry": { "type": "Point", "coordinates": [ -73.8248, 40.8691 ] } },
{ "type": "Feature", "properties": { "city": "Dalton", "latitude": 34.89383, "longitude": -84.94654, "name": "McDonalds", "province": "GA" }, "geometry": { "type": "Point", "coordinates": [ -84.94654, 34.89383 ] } },
{ "type": "Feature", "properties": { "city": "West Linn", "latitude": 45.349698, "longitude": -122.653281, "name": "Jack in the Box", "province": "OR" }, "geometry": { "type": "Point", "coordinates": [ -122.653281, 45.349698 ] } },
{ "type": "Feature", "properties": { "city": "Brigham City", "latitude": 41.48602, "longitude": -112.02944, "name": "Sonic Drive-In", "province": "UT" }, "geometry": { "type": "Point", "coordinates": [ -112.02944, 41.48602 ] } },
{ "type": "Feature", "properties": { "city": "Brigham City", "latitude": 41.49113, "longitude": -112.01555, "name": "Taco Bell", "province": "UT" }, "geometry": { "type": "Point", "coordinates": [ -112.01555, 41.49113 ] } },
{ "type": "Feature", "properties": { "city": "Brigham City", "latitude": 41.48561, "longitude": -112.02934, "name": "Subway", "province": "UT" }, "geometry": { "type": "Point", "coordinates": [ -112.02934, 41.48561 ] } },
{ "type": "Feature", "properties": { "city": "Chesterton", "latitude": 41.6165, "longitude": -87.0439, "name": "Jimmy John's", "province": "IN" }, "geometry": { "type": "Point", "coordinates": [ -87.0439, 41.6165 ] } },
{ "type": "Feature", "properties": { "city": "Martin", "latitude": 36.3485, "longitude": -88.87344, "name": "McDonald's", "province": "TN" }, "geometry": { "type": "Point", "coordinates": [ -88.87344, 36.3485 ] } },
{ "type": "Feature", "properties": { "city": "La Crosse", "latitude": 43.79609, "longitude": -91.21769, "name": "Hardee's", "province": "WI" }, "geometry": { "type": "Point", "coordinates": [ -91.21769, 43.79609 ] } },
{ "type": "Feature", "properties": { "city": "Memphis", "latitude": 35.1694, "longitude": -89.86479, "name": "McDonald's", "province": "TN" }, "geometry": { "type": "Point", "coordinates": [ -89.86479, 35.1694 ] } },
{ "type": "Feature", "properties": { "city": "La Crosse", "latitude": 43.85742, "longitude": -91.23993, "name": "McDonald's", "province": "WI" }, "geometry": { "type": "Point", "coordinates": [ -91.23993, 43.85742 ] } },
{ "type": "Feature", "properties": { "city": "Marshfield", "latitude": 44.674233, "longitude": -90.168369, "name": "Taco John's", "province": "WI" }, "geometry": { "type": "Point", "coordinates": [ -90.168369, 44.674233 ] } },
{ "type": "Feature", "properties": { "city": "Marshfield", "latitude": 44.67742, "longitude": -90.16521, "name": "McDonald's", "province": "WI" }, "geometry": { "type": "Point", "coordinates": [ -90.16521, 44.67742 ] } },
{ "type": "Feature", "properties": { "city": "Cleveland", "latitude": 41.433314, "longitude": -81.523935, "name": "Mr Hero", "province": "OH" }, "geometry": { "type": "Point", "coordinates": [ -81.523935, 41.433314 ] } },
{ "type": "Feature", "properties": { "city": "Yakima", "latitude": 46.6039, "longitude": -120.53093, "name": "McDonald's", "province": "WA" }, "geometry": { "type": "Point", "coordinates": [ -120.53093, 46.6039 ] } },
{ "type": "Feature", "properties": { "city": "West Jordan", "latitude": 40.60985, "longitude": -112.0266, "name": "McDonald's", "province": "UT" }, "geometry": { "type": "Point", "coordinates": [ -112.0266, 40.60985 ] } },
{ "type": "Feature", "properties": { "city": "Indianola", "latitude": 33.45785, "longitude": -90.63563, "name": "Taco Bell", "province": "MS" }, "geometry": { "type": "Point", "coordinates": [ -90.63563, 33.45785 ] } },
{ "type": "Feature", "properties": { "city": "Fort Riley", "latitude": 39.0644, "longitude": -96.79881, "name": "Domino's Pizza", "province": "KS" }, "geometry": { "type": "Point", "coordinates": [ -96.79881, 39.0644 ] } },
{ "type": "Feature", "properties": { "city": "Saint George", "latitude": 37.122977, "longitude": -113.613499, "name": "Taco Bell", "province": "UT" }, "geometry": { "type": "Point", "coordinates": [ -113.613499, 37.122977 ] } },
{ "type": "Feature", "properties": { "city": "Saint George", "latitude": 37.109869, "longitude": -113.570286, "name": "Taco Bell", "province": "UT" }, "geometry": { "type": "Point", "coordinates": [ -113.570286, 37.109869 ] } },
{ "type": "Feature", "properties": { "city": "Lawrence", "latitude": 38.971514, "longitude": -95.301449, "name": "Pizza Hut", "province": "KS" }, "geometry": { "type": "Point", "coordinates": [ -95.301449, 38.971514 ] } },
{ "type": "Feature", "properties": { "city": "Lincoln", "latitude": 40.75546, "longitude": -96.64543, "name": "Amigos\/Kings Classic", "province": "NE" }, "geometry": { "type": "Point", "coordinates": [ -96.64543, 40.75546 ] } },
{ "type": "Feature", "properties": { "city": "Overland Park", "latitude": 38.88353, "longitude": -94.672, "name": "Raising Cane's Chicken Fingers", "province": "KS" }, "geometry": { "type": "Point", "coordinates": [ -94.672, 38.88353 ] } },
{ "type": "Feature", "properties": { "city": "Sandusky", "latitude": 41.41841, "longitude": -82.67352, "name": "McDonalds", "province": "OH" }, "geometry": { "type": "Point", "coordinates": [ -82.67352, 41.41841 ] } },
{ "type": "Feature", "properties": { "city": "La Marque", "latitude": 29.3676, "longitude": -94.97416, "name": "Whataburger", "province": "TX" }, "geometry": { "type": "Point", "coordinates": [ -94.97416, 29.3676 ] } },
{ "type": "Feature", "properties": { "city": "Rockport", "latitude": 28.036688, "longitude": -97.04238, "name": "McDonald's", "province": "TX" }, "geometry": { "type": "Point", "coordinates": [ -97.04238, 28.036688 ] } },
{ "type": "Feature", "properties": { "city": "Cincinnati", "latitude": 39.25009, "longitude": -84.59411, "name": "Domino's Pizza", "province": "OH" }, "geometry": { "type": "Point", "coordinates": [ -84.59411, 39.25009 ] } },
{ "type": "Feature", "properties": { "city": "Cincinnati", "latitude": 39.18985, "longitude": -84.36207, "name": "Domino's Pizza", "province": "OH" }, "geometry": { "type": "Point", "coordinates": [ -84.36207, 39.18985 ] } },
{ "type": "Feature", "properties": { "city": "New Braunfels", "latitude": 29.7279, "longitude": -98.07612, "name": "Whataburger", "province": "TX" }, "geometry": { "type": "Point", "coordinates": [ -98.07612, 29.7279 ] } },
{ "type": "Feature", "properties": { "city": "Windham", "latitude": 43.83887, "longitude": -70.44217, "name": "Burger King", "province": "ME" }, "geometry": { "type": "Point", "coordinates": [ -70.44217, 43.83887 ] } },
{ "type": "Feature", "properties": { "city": "Spokane", "latitude": 47.673976, "longitude": -117.206394, "name": "Taco Time", "province": "WA" }, "geometry": { "type": "Point", "coordinates": [ -117.206394, 47.673976 ] } },
{ "type": "Feature", "properties": { "city": "Jefferson City", "latitude": 38.59259, "longitude": -92.2254, "name": "SONIC Drive In", "province": "MO" }, "geometry": { "type": "Point", "coordinates": [ -92.2254, 38.59259 ] } },
{ "type": "Feature", "properties": { "city": "Jefferson City", "latitude": 38.58068, "longitude": -92.2352, "name": "McDonald's", "province": "MO" }, "geometry": { "type": "Point", "coordinates": [ -92.2352, 38.58068 ] } },
{ "type": "Feature", "properties": { "city": "Oxford", "latitude": 34.36729, "longitude": -89.54978, "name": "Coop DeVille", "province": "MS" }, "geometry": { "type": "Point", "coordinates": [ -89.54978, 34.36729 ] } },
{ "type": "Feature", "properties": { "city": "Sidney", "latitude": 41.138, "longitude": -102.98557, "name": "McDonalds", "province": "NE" }, "geometry": { "type": "Point", "coordinates": [ -102.98557, 41.138 ] } },
{ "type": "Feature", "properties": { "city": "Auburn", "latitude": 40.39457, "longitude": -95.83913, "name": "Amigos\/Kings Classic", "province": "NE" }, "geometry": { "type": "Point", "coordinates": [ -95.83913, 40.39457 ] } },
{ "type": "Feature", "properties": { "city": "Garden City", "latitude": 40.725253, "longitude": -73.634393, "name": "B. Good", "province": "NY" }, "geometry": { "type": "Point", "coordinates": [ -73.634393, 40.725253 ] } },
{ "type": "Feature", "properties": { "city": "Shepherdsville", "latitude": 37.9978, "longitude": -85.70737, "name": "Domino's Pizza", "province": "KY" }, "geometry": { "type": "Point", "coordinates": [ -85.70737, 37.9978 ] } },
{ "type": "Feature", "properties": { "city": "Glasgow", "latitude": 37.0082, "longitude": -85.92208, "name": "McDonald's", "province": "KY" }, "geometry": { "type": "Point", "coordinates": [ -85.92208, 37.0082 ] } },
{ "type": "Feature", "properties": { "city": "Alexandria", "latitude": 31.27267, "longitude": -92.48395, "name": "Sonic Drive-In", "province": "LA" }, "geometry": { "type": "Point", "coordinates": [ -92.48395, 31.27267 ] } },
{ "type": "Feature", "properties": { "city": "Somerset", "latitude": 37.09224, "longitude": -84.61883, "name": "McDonald's", "province": "KY" }, "geometry": { "type": "Point", "coordinates": [ -84.61883, 37.09224 ] } },
{ "type": "Feature", "properties": { "city": "Albuquerque", "latitude": 35.085335, "longitude": -106.60555, "name": "Domino's Pizza", "province": "NM" }, "geometry": { "type": "Point", "coordinates": [ -106.60555, 35.085335 ] } },
{ "type": "Feature", "properties": { "city": "Owensboro", "latitude": 37.723743, "longitude": -87.123894, "name": "McDonald's", "province": "KY" }, "geometry": { "type": "Point", "coordinates": [ -87.123894, 37.723743 ] } },
{ "type": "Feature", "properties": { "city": "Kenner", "latitude": 30.02306, "longitude": -90.26933, "name": "Burger King", "province": "LA" }, "geometry": { "type": "Point", "coordinates": [ -90.26933, 30.02306 ] } },
{ "type": "Feature", "properties": { "city": "Houma", "latitude": 29.63346, "longitude": -90.75858, "name": "Sonic Drive-In", "province": "LA" }, "geometry": { "type": "Point", "coordinates": [ -90.75858, 29.63346 ] } },
{ "type": "Feature", "properties": { "city": "Albuquerque", "latitude": 35.17351, "longitude": -106.49703, "name": "Domino's Pizza", "province": "NM" }, "geometry": { "type": "Point", "coordinates": [ -106.49703, 35.17351 ] } },
{ "type": "Feature", "properties": { "city": "Madison", "latitude": 38.77544, "longitude": -85.39367, "name": "Rally's", "province": "IN" }, "geometry": { "type": "Point", "coordinates": [ -85.39367, 38.77544 ] } },
{ "type": "Feature", "properties": { "city": "Houma", "latitude": 29.58875, "longitude": -90.74346, "name": "Taco Bell", "province": "LA" }, "geometry": { "type": "Point", "coordinates": [ -90.74346, 29.58875 ] } },
{ "type": "Feature", "properties": { "city": "Farmerville", "latitude": 32.7715, "longitude": -92.39699, "name": "Taco Bell", "province": "LA" }, "geometry": { "type": "Point", "coordinates": [ -92.39699, 32.7715 ] } },
{ "type": "Feature", "properties": { "city": "Westwego", "latitude": 29.89708, "longitude": -90.14081, "name": "Pizza Hut", "province": "LA" }, "geometry": { "type": "Point", "coordinates": [ -90.14081, 29.89708 ] } },
{ "type": "Feature", "properties": { "city": "Baton Rouge", "latitude": 30.44345, "longitude": -91.17915, "name": "Sonic Drive-In", "province": "LA" }, "geometry": { "type": "Point", "coordinates": [ -91.17915, 30.44345 ] } },
{ "type": "Feature", "properties": { "city": "Cleveland", "latitude": 33.75489, "longitude": -90.71678, "name": "Back Yard Burgers", "province": "MS" }, "geometry": { "type": "Point", "coordinates": [ -90.71678, 33.75489 ] } },
{ "type": "Feature", "properties": { "city": "Cleveland", "latitude": 33.74364, "longitude": -90.71593, "name": "McDonald's", "province": "MS" }, "geometry": { "type": "Point", "coordinates": [ -90.71593, 33.74364 ] } },
{ "type": "Feature", "properties": { "city": "Camp Lejeune", "latitude": 34.72418, "longitude": -77.34444, "name": "Wendy's", "province": "NC" }, "geometry": { "type": "Point", "coordinates": [ -77.34444, 34.72418 ] } },
{ "type": "Feature", "properties": { "city": "Duluth", "latitude": 46.78937, "longitude": -92.09841, "name": "Domino's Pizza", "province": "MN" }, "geometry": { "type": "Point", "coordinates": [ -92.09841, 46.78937 ] } },
{ "type": "Feature", "properties": { "city": "Fort Stewart", "latitude": 31.8613, "longitude": -81.61078, "name": "Burger King", "province": "GA" }, "geometry": { "type": "Point", "coordinates": [ -81.61078, 31.8613 ] } },
{ "type": "Feature", "properties": { "city": "Northport", "latitude": 33.236442, "longitude": -87.576869, "name": "Sonic Drive-In", "province": "AL" }, "geometry": { "type": "Point", "coordinates": [ -87.576869, 33.236442 ] } },
{ "type": "Feature", "properties": { "city": "Coralville", "latitude": 41.68432, "longitude": -91.60353, "name": "Domino's Pizza", "province": "IA" }, "geometry": { "type": "Point", "coordinates": [ -91.60353, 41.68432 ] } },
{ "type": "Feature", "properties": { "city": "Hartselle", "latitude": 34.439438, "longitude": -86.940455, "name": "Taco Bell", "province": "AL" }, "geometry": { "type": "Point", "coordinates": [ -86.940455, 34.439438 ] } },
{ "type": "Feature", "properties": { "city": "Elizabeth City", "latitude": 36.29457, "longitude": -76.23925, "name": "Domino's Pizza", "province": "NC" }, "geometry": { "type": "Point", "coordinates": [ -76.23925, 36.29457 ] } },
{ "type": "Feature", "properties": { "city": "Swansboro", "latitude": 34.69765, "longitude": -77.14086, "name": "McDonalds", "province": "NC" }, "geometry": { "type": "Point", "coordinates": [ -77.14086, 34.69765 ] } },
{ "type": "Feature", "properties": { "city": "Sutton", "latitude": 38.70084, "longitude": -80.664158, "name": "Arby's", "province": "WV" }, "geometry": { "type": "Point", "coordinates": [ -80.664158, 38.70084 ] } },
{ "type": "Feature", "properties": { "city": "Burlington", "latitude": 44.47568, "longitude": -73.21264, "name": "Pacific Rim", "province": "VT" }, "geometry": { "type": "Point", "coordinates": [ -73.21264, 44.47568 ] } },
{ "type": "Feature", "properties": { "city": "Bay City", "latitude": 28.9826, "longitude": -95.94636, "name": "Taco Bell", "province": "TX" }, "geometry": { "type": "Point", "coordinates": [ -95.94636, 28.9826 ] } },
{ "type": "Feature", "properties": { "city": "Columbia", "latitude": 34.13885, "longitude": -80.95378, "name": "Panda Express", "province": "SC" }, "geometry": { "type": "Point", "coordinates": [ -80.95378, 34.13885 ] } },
{ "type": "Feature", "properties": { "city": "Ames", "latitude": 42.02193, "longitude": -93.65164, "name": "Domino's Pizza", "province": "IA" }, "geometry": { "type": "Point", "coordinates": [ -93.65164, 42.02193 ] } },
{ "type": "Feature", "properties": { "city": "Laurinburg", "latitude": 34.760626, "longitude": -79.487148, "name": "Taco Bell", "province": "NC" }, "geometry": { "type": "Point", "coordinates": [ -79.487148, 34.760626 ] } },
{ "type": "Feature", "properties": { "city": "Valdosta", "latitude": 30.84377, "longitude": -83.32041, "name": "Chick-fil-A", "province": "GA" }, "geometry": { "type": "Point", "coordinates": [ -83.32041, 30.84377 ] } },
{ "type": "Feature", "properties": { "city": "Batesburg", "latitude": 33.903931, "longitude": -81.545787, "name": "Hardee's", "province": "SC" }, "geometry": { "type": "Point", "coordinates": [ -81.545787, 33.903931 ] } },
{ "type": "Feature", "properties": { "city": "North Charleston", "latitude": 32.87129, "longitude": -80.02056, "name": "Domino's Pizza", "province": "SC" }, "geometry": { "type": "Point", "coordinates": [ -80.02056, 32.87129 ] } },
{ "type": "Feature", "properties": { "city": "Ottumwa", "latitude": 41.04905, "longitude": -92.41165, "name": "McDonald's", "province": "IA" }, "geometry": { "type": "Point", "coordinates": [ -92.41165, 41.04905 ] } },
{ "type": "Feature", "properties": { "city": "Mexia", "latitude": 31.68468, "longitude": -96.47389, "name": "McDonald's", "province": "TX" }, "geometry": { "type": "Point", "coordinates": [ -96.47389, 31.68468 ] } },
{ "type": "Feature", "properties": { "city": "Baton Rouge", "latitude": 30.44529, "longitude": -91.13715, "name": "Captain D's", "province": "LA" }, "geometry": { "type": "Point", "coordinates": [ -91.13715, 30.44529 ] } },
{ "type": "Feature", "properties": { "city": "Corpus Christi", "latitude": 27.85699, "longitude": -97.63067, "name": "Whataburger", "province": "TX" }, "geometry": { "type": "Point", "coordinates": [ -97.63067, 27.85699 ] } },
{ "type": "Feature", "properties": { "city": "Angleton", "latitude": 29.165887, "longitude": -95.422475, "name": "Jack in the Box", "province": "TX" }, "geometry": { "type": "Point", "coordinates": [ -95.422475, 29.165887 ] } },
{ "type": "Feature", "properties": { "city": "Natchitoches", "latitude": 31.75324, "longitude": -93.10647, "name": "Sonic Drive-In", "province": "LA" }, "geometry": { "type": "Point", "coordinates": [ -93.10647, 31.75324 ] } },
{ "type": "Feature", "properties": { "city": "Tillamook", "latitude": 45.486681, "longitude": -123.845556, "name": "McDonald's", "province": "OR" }, "geometry": { "type": "Point", "coordinates": [ -123.845556, 45.486681 ] } },
{ "type": "Feature", "properties": { "city": "Franklin", "latitude": 35.90875, "longitude": -86.88409, "name": "Domino's Pizza", "province": "TN" }, "geometry": { "type": "Point", "coordinates": [ -86.88409, 35.90875 ] } },
{ "type": "Feature", "properties": { "city": "Mexico", "latitude": 39.16989, "longitude": -91.87478, "name": "SONIC Drive In", "province": "MO" }, "geometry": { "type": "Point", "coordinates": [ -91.87478, 39.16989 ] } },
{ "type": "Feature", "properties": { "city": "Park Hills", "latitude": 37.84401, "longitude": -90.50351, "name": "SONIC Drive In", "province": "MO" }, "geometry": { "type": "Point", "coordinates": [ -90.50351, 37.84401 ] } },
{ "type": "Feature", "properties": { "city": "Phoenix", "latitude": 33.581838, "longitude": -112.124385, "name": "Samurai Sam's", "province": "AZ" }, "geometry": { "type": "Point", "coordinates": [ -112.124385, 33.581838 ] } },
{ "type": "Feature", "properties": { "city": "Andalusia", "latitude": 31.30789, "longitude": -86.4999, "name": "Arby's", "province": "AL" }, "geometry": { "type": "Point", "coordinates": [ -86.4999, 31.30789 ] } },
{ "type": "Feature", "properties": { "city": "Lincoln", "latitude": 40.814503, "longitude": -96.700905, "name": "Amigos\/Kings Classic", "province": "NE" }, "geometry": { "type": "Point", "coordinates": [ -96.700905, 40.814503 ] } },
{ "type": "Feature", "properties": { "city": "Clay Center", "latitude": 39.37906, "longitude": -97.14248, "name": "SONIC Drive In", "province": "KS" }, "geometry": { "type": "Point", "coordinates": [ -97.14248, 39.37906 ] } },
{ "type": "Feature", "properties": { "city": "Tyler", "latitude": 32.28572, "longitude": -95.30372, "name": "McDonald's", "province": "TX" }, "geometry": { "type": "Point", "coordinates": [ -95.30372, 32.28572 ] } },
{ "type": "Feature", "properties": { "city": "Victoria", "latitude": 28.82378, "longitude": -97.000727, "name": "McDonald's", "province": "TX" }, "geometry": { "type": "Point", "coordinates": [ -97.000727, 28.82378 ] } },
{ "type": "Feature", "properties": { "city": "Keyser", "latitude": 39.44023, "longitude": -78.97744, "name": "Subway", "province": "WV" }, "geometry": { "type": "Point", "coordinates": [ -78.97744, 39.44023 ] } },
{ "type": "Feature", "properties": { "city": "Katy", "latitude": 29.79332, "longitude": -95.71956, "name": "McDonald's", "province": "TX" }, "geometry": { "type": "Point", "coordinates": [ -95.71956, 29.79332 ] } },
{ "type": "Feature", "properties": { "city": "Woodway", "latitude": 31.51211, "longitude": -97.18724, "name": "Whataburger", "province": "TX" }, "geometry": { "type": "Point", "coordinates": [ -97.18724, 31.51211 ] } },
{ "type": "Feature", "properties": { "city": "Roma", "latitude": 26.40269, "longitude": -99.01235, "name": "McDonald's", "province": "TX" }, "geometry": { "type": "Point", "coordinates": [ -99.01235, 26.40269 ] } },
{ "type": "Feature", "properties": { "city": "Buffalo", "latitude": 31.45096, "longitude": -96.07826, "name": "McDonalds", "province": "TX" }, "geometry": { "type": "Point", "coordinates": [ -96.07826, 31.45096 ] } },
{ "type": "Feature", "properties": { "city": "Childress", "latitude": 34.43504, "longitude": -100.22784, "name": "McDonald's", "province": "TX" }, "geometry": { "type": "Point", "coordinates": [ -100.22784, 34.43504 ] } },
{ "type": "Feature", "properties": { "city": "Kingsville", "latitude": 27.50749, "longitude": -97.85649, "name": "Taco Bell", "province": "TX" }, "geometry": { "type": "Point", "coordinates": [ -97.85649, 27.50749 ] } },
{ "type": "Feature", "properties": { "city": "Killeen", "latitude": 31.07809, "longitude": -97.75698, "name": "McDonald's", "province": "TX" }, "geometry": { "type": "Point", "coordinates": [ -97.75698, 31.07809 ] } },
{ "type": "Feature", "properties": { "city": "Gilmer", "latitude": 32.73227, "longitude": -94.94278, "name": "Taco Bell", "province": "TX" }, "geometry": { "type": "Point", "coordinates": [ -94.94278, 32.73227 ] } },
{ "type": "Feature", "properties": { "city": "Katy", "latitude": 29.71927, "longitude": -95.78177, "name": "McDonald's", "province": "TX" }, "geometry": { "type": "Point", "coordinates": [ -95.78177, 29.71927 ] } },
{ "type": "Feature", "properties": { "city": "Jasper", "latitude": 30.91192, "longitude": -93.99569, "name": "McDonald's", "province": "TX" }, "geometry": { "type": "Point", "coordinates": [ -93.99569, 30.91192 ] } },
{ "type": "Feature", "properties": { "city": "Bowie", "latitude": 33.557809, "longitude": -97.846268, "name": "McDonald's", "province": "TX" }, "geometry": { "type": "Point", "coordinates": [ -97.846268, 33.557809 ] } },
{ "type": "Feature", "properties": { "city": "New Boston", "latitude": 33.4717, "longitude": -94.4091, "name": "Taco Bell", "province": "TX" }, "geometry": { "type": "Point", "coordinates": [ -94.4091, 33.4717 ] } },
{ "type": "Feature", "properties": { "city": "San Benito", "latitude": 26.12559, "longitude": -97.63723, "name": "McDonald's", "province": "TX" }, "geometry": { "type": "Point", "coordinates": [ -97.63723, 26.12559 ] } },
{ "type": "Feature", "properties": { "city": "Hickory", "latitude": 35.69172, "longitude": -81.35675, "name": "Domino's Pizza", "province": "NC" }, "geometry": { "type": "Point", "coordinates": [ -81.35675, 35.69172 ] } },
{ "type": "Feature", "properties": { "city": "Lonoke", "latitude": 34.79816, "longitude": -91.89096, "name": "SONIC Drive In", "province": "AR" }, "geometry": { "type": "Point", "coordinates": [ -91.89096, 34.79816 ] } },
{ "type": "Feature", "properties": { "city": "Gretna", "latitude": 29.90228, "longitude": -90.03, "name": "Domino's Pizza", "province": "LA" }, "geometry": { "type": "Point", "coordinates": [ -90.03, 29.90228 ] } },
{ "type": "Feature", "properties": { "city": "Papillion", "latitude": 41.141563, "longitude": -96.01308, "name": "Domino's Pizza", "province": "NE" }, "geometry": { "type": "Point", "coordinates": [ -96.01308, 41.141563 ] } },
{ "type": "Feature", "properties": { "city": "Omaha", "latitude": 41.2606, "longitude": -96.09081, "name": "Domino's Pizza", "province": "NE" }, "geometry": { "type": "Point", "coordinates": [ -96.09081, 41.2606 ] } },
{ "type": "Feature", "properties": { "city": "Newport", "latitude": 39.09245, "longitude": -84.4806, "name": "Domino's Pizza", "province": "KY" }, "geometry": { "type": "Point", "coordinates": [ -84.4806, 39.09245 ] } },
{ "type": "Feature", "properties": { "city": "Greensboro", "latitude": 36.20043, "longitude": -79.84375, "name": "Domino's Pizza", "province": "NC" }, "geometry": { "type": "Point", "coordinates": [ -79.84375, 36.20043 ] } },
{ "type": "Feature", "properties": { "city": "Harlingen", "latitude": 26.17221, "longitude": -97.67362, "name": "Taco Bell", "province": "TX" }, "geometry": { "type": "Point", "coordinates": [ -97.67362, 26.17221 ] } },
{ "type": "Feature", "properties": { "city": "Las Vegas", "latitude": 35.60569, "longitude": -105.22363, "name": "McDonald's", "province": "NM" }, "geometry": { "type": "Point", "coordinates": [ -105.22363, 35.60569 ] } },
{ "type": "Feature", "properties": { "city": "Holdrege", "latitude": 40.42485, "longitude": -99.3797, "name": "Sonic Drive-In", "province": "NE" }, "geometry": { "type": "Point", "coordinates": [ -99.3797, 40.42485 ] } },
{ "type": "Feature", "properties": { "city": "Minot", "latitude": 48.21665, "longitude": -101.29666, "name": "Taco Bell", "province": "ND" }, "geometry": { "type": "Point", "coordinates": [ -101.29666, 48.21665 ] } },
{ "type": "Feature", "properties": { "city": "Wahpeton", "latitude": 46.26365, "longitude": -96.61158, "name": "Taco John's", "province": "ND" }, "geometry": { "type": "Point", "coordinates": [ -96.61158, 46.26365 ] } },
{ "type": "Feature", "properties": { "city": "Madison", "latitude": 44.006216, "longitude": -97.118242, "name": "Taco John's", "province": "SD" }, "geometry": { "type": "Point", "coordinates": [ -97.118242, 44.006216 ] } },
{ "type": "Feature", "properties": { "city": "Carlsbad", "latitude": 32.41713, "longitude": -104.2292, "name": "McDonalds", "province": "NM" }, "geometry": { "type": "Point", "coordinates": [ -104.2292, 32.41713 ] } },
{ "type": "Feature", "properties": { "city": "Bastrop", "latitude": 32.77873, "longitude": -91.8896, "name": "McDonald's", "province": "LA" }, "geometry": { "type": "Point", "coordinates": [ -91.8896, 32.77873 ] } },
{ "type": "Feature", "properties": { "city": "Truth Or Consequences", "latitude": 33.15244, "longitude": -107.24684, "name": "Sonic Drive-In", "province": "NM" }, "geometry": { "type": "Point", "coordinates": [ -107.24684, 33.15244 ] } },
{ "type": "Feature", "properties": { "city": "Madison", "latitude": 44.007172, "longitude": -97.115957, "name": "McDonald's", "province": "SD" }, "geometry": { "type": "Point", "coordinates": [ -97.115957, 44.007172 ] } },
{ "type": "Feature", "properties": { "city": "Owatonna", "latitude": 44.084414, "longitude": -93.241752, "name": "Taco Bell", "province": "MN" }, "geometry": { "type": "Point", "coordinates": [ -93.241752, 44.084414 ] } },
{ "type": "Feature", "properties": { "city": "Laramie", "latitude": 41.30959, "longitude": -105.56668, "name": "Taco Bell", "province": "WY" }, "geometry": { "type": "Point", "coordinates": [ -105.56668, 41.30959 ] } },
{ "type": "Feature", "properties": { "city": "Belle Fourche", "latitude": 44.66263, "longitude": -103.85504, "name": "Taco John's", "province": "SD" }, "geometry": { "type": "Point", "coordinates": [ -103.85504, 44.66263 ] } },
{ "type": "Feature", "properties": { "city": "Shreveport", "latitude": 32.4316, "longitude": -93.71381, "name": "Whataburger", "province": "LA" }, "geometry": { "type": "Point", "coordinates": [ -93.71381, 32.4316 ] } },
{ "type": "Feature", "properties": { "city": "Tahlequah", "latitude": 35.9196, "longitude": -94.96673, "name": "Northeastern State University", "province": "OK" }, "geometry": { "type": "Point", "coordinates": [ -94.96673, 35.9196 ] } },
{ "type": "Feature", "properties": { "city": "Alexandria", "latitude": 31.29621, "longitude": -92.478, "name": "McDonald's", "province": "LA" }, "geometry": { "type": "Point", "coordinates": [ -92.478, 31.29621 ] } },
{ "type": "Feature", "properties": { "city": "Ellsworth", "latitude": 44.5325, "longitude": -68.408, "name": "Taco Bell", "province": "ME" }, "geometry": { "type": "Point", "coordinates": [ -68.408, 44.5325 ] } },
{ "type": "Feature", "properties": { "city": "Ellsworth", "latitude": 44.53099, "longitude": -68.40688, "name": "McDonald's", "province": "ME" }, "geometry": { "type": "Point", "coordinates": [ -68.40688, 44.53099 ] } },
{ "type": "Feature", "properties": { "city": "Albuquerque", "latitude": 35.14515, "longitude": -106.58797, "name": "Pizza Hut", "province": "NM" }, "geometry": { "type": "Point", "coordinates": [ -106.58797, 35.14515 ] } },
{ "type": "Feature", "properties": { "city": "Natchitoches", "latitude": 31.75412, "longitude": -93.08107, "name": "McDonald's", "province": "LA" }, "geometry": { "type": "Point", "coordinates": [ -93.08107, 31.75412 ] } },
{ "type": "Feature", "properties": { "city": "Gardiner", "latitude": 44.22938, "longitude": -69.77157, "name": "Domino's Pizza", "province": "ME" }, "geometry": { "type": "Point", "coordinates": [ -69.77157, 44.22938 ] } },
{ "type": "Feature", "properties": { "city": "Springdale", "latitude": 36.17034, "longitude": -94.13983, "name": "SONIC Drive In", "province": "AR" }, "geometry": { "type": "Point", "coordinates": [ -94.13983, 36.17034 ] } },
{ "type": "Feature", "properties": { "city": "Stigler", "latitude": 35.25441, "longitude": -95.10962, "name": "McDonald's", "province": "OK" }, "geometry": { "type": "Point", "coordinates": [ -95.10962, 35.25441 ] } },
{ "type": "Feature", "properties": { "city": "Atoka", "latitude": 34.3717, "longitude": -96.13563, "name": "Taco Bell", "province": "OK" }, "geometry": { "type": "Point", "coordinates": [ -96.13563, 34.3717 ] } },
{ "type": "Feature", "properties": { "city": "Checotah", "latitude": 35.47132, "longitude": -95.52156, "name": "Subway", "province": "OK" }, "geometry": { "type": "Point", "coordinates": [ -95.52156, 35.47132 ] } },
{ "type": "Feature", "properties": { "city": "Springfield", "latitude": 44.04537, "longitude": -122.96621, "name": "Domino's Pizza", "province": "OR" }, "geometry": { "type": "Point", "coordinates": [ -122.96621, 44.04537 ] } },
{ "type": "Feature", "properties": { "city": "Brattleboro", "latitude": 42.83924, "longitude": -72.56684, "name": "Domino's Pizza", "province": "VT" }, "geometry": { "type": "Point", "coordinates": [ -72.56684, 42.83924 ] } },
{ "type": "Feature", "properties": { "city": "Wagoner", "latitude": 35.96083, "longitude": -95.39476, "name": "SONIC Drive In", "province": "OK" }, "geometry": { "type": "Point", "coordinates": [ -95.39476, 35.96083 ] } },
{ "type": "Feature", "properties": { "city": "Alexandria", "latitude": 31.26788, "longitude": -92.48741, "name": "Subway", "province": "LA" }, "geometry": { "type": "Point", "coordinates": [ -92.48741, 31.26788 ] } },
{ "type": "Feature", "properties": { "city": "Endicott", "latitude": 42.09591, "longitude": -76.05453, "name": "McDonald's", "province": "NY" }, "geometry": { "type": "Point", "coordinates": [ -76.05453, 42.09591 ] } },
{ "type": "Feature", "properties": { "city": "West Lafayette", "latitude": 40.45384, "longitude": -86.91841, "name": "Jimmy John's", "province": "IN" }, "geometry": { "type": "Point", "coordinates": [ -86.91841, 40.45384 ] } },
{ "type": "Feature", "properties": { "city": "Saint Albans", "latitude": 44.8396, "longitude": -73.08202, "name": "Taco Bell", "province": "VT" }, "geometry": { "type": "Point", "coordinates": [ -73.08202, 44.8396 ] } },
{ "type": "Feature", "properties": { "city": "Burlington", "latitude": 44.44926, "longitude": -73.20896, "name": "SUBWAY", "province": "VT" }, "geometry": { "type": "Point", "coordinates": [ -73.20896, 44.44926 ] } },
{ "type": "Feature", "properties": { "city": "Alexandria", "latitude": 40.24008, "longitude": -85.66922, "name": "Pizza Hut", "province": "IN" }, "geometry": { "type": "Point", "coordinates": [ -85.66922, 40.24008 ] } },
{ "type": "Feature", "properties": { "city": "Montpelier", "latitude": 44.25664, "longitude": -72.57701, "name": "Domino's Pizza", "province": "VT" }, "geometry": { "type": "Point", "coordinates": [ -72.57701, 44.25664 ] } },
{ "type": "Feature", "properties": { "city": "North Wilkesboro", "latitude": 36.16562, "longitude": -81.13658, "name": "Wendy's", "province": "NC" }, "geometry": { "type": "Point", "coordinates": [ -81.13658, 36.16562 ] } },
{ "type": "Feature", "properties": { "city": "Houlton", "latitude": 46.13483, "longitude": -67.83927, "name": "Domino's Pizza", "province": "ME" }, "geometry": { "type": "Point", "coordinates": [ -67.83927, 46.13483 ] } },
{ "type": "Feature", "properties": { "city": "Williston", "latitude": 48.1566, "longitude": -103.6262, "name": "Taco John's", "province": "ND" }, "geometry": { "type": "Point", "coordinates": [ -103.6262, 48.1566 ] } },
{ "type": "Feature", "properties": { "city": "Columbia", "latitude": 34.064617, "longitude": -80.95748, "name": "Sarku Japan", "province": "SC" }, "geometry": { "type": "Point", "coordinates": [ -80.95748, 34.064617 ] } },
{ "type": "Feature", "properties": { "city": "Mason City", "latitude": 43.14776, "longitude": -93.21414, "name": "Taco Bell", "province": "IA" }, "geometry": { "type": "Point", "coordinates": [ -93.21414, 43.14776 ] } },
{ "type": "Feature", "properties": { "city": "Spencer", "latitude": 43.12617, "longitude": -95.15025, "name": "Taco Bell", "province": "IA" }, "geometry": { "type": "Point", "coordinates": [ -95.15025, 43.12617 ] } },
{ "type": "Feature", "properties": { "city": "Washington", "latitude": 41.29768, "longitude": -91.69085, "name": "Taco Bell", "province": "IA" }, "geometry": { "type": "Point", "coordinates": [ -91.69085, 41.29768 ] } },
{ "type": "Feature", "properties": { "city": "Owens Cross Roads", "latitude": 34.657839, "longitude": -86.483357, "name": "Taco Bell", "province": "AL" }, "geometry": { "type": "Point", "coordinates": [ -86.483357, 34.657839 ] } },
{ "type": "Feature", "properties": { "city": "West Columbia", "latitude": 33.93912, "longitude": -81.150724, "name": "Pizza Hut", "province": "SC" }, "geometry": { "type": "Point", "coordinates": [ -81.150724, 33.93912 ] } },
{ "type": "Feature", "properties": { "city": "Jacksonville", "latitude": 39.723201, "longitude": -90.240464, "name": "Taco Bell", "province": "IL" }, "geometry": { "type": "Point", "coordinates": [ -90.240464, 39.723201 ] } },
{ "type": "Feature", "properties": { "city": "Seneca Falls", "latitude": 42.9037, "longitude": -76.8312, "name": "Burger King", "province": "NY" }, "geometry": { "type": "Point", "coordinates": [ -76.8312, 42.9037 ] } },
{ "type": "Feature", "properties": { "city": "Camden", "latitude": 34.24907, "longitude": -80.64598, "name": "Chick-fil-A", "province": "SC" }, "geometry": { "type": "Point", "coordinates": [ -80.64598, 34.24907 ] } },
{ "type": "Feature", "properties": { "city": "Rawlins", "latitude": 41.77618, "longitude": -107.22593, "name": "Subway", "province": "WY" }, "geometry": { "type": "Point", "coordinates": [ -107.22593, 41.77618 ] } },
{ "type": "Feature", "properties": { "city": "Malone", "latitude": 44.84987, "longitude": -74.28485, "name": "Domino's Pizza", "province": "NY" }, "geometry": { "type": "Point", "coordinates": [ -74.28485, 44.84987 ] } },
{ "type": "Feature", "properties": { "city": "Clinton", "latitude": 40.14714, "longitude": -88.97722, "name": "Taco Bell", "province": "IL" }, "geometry": { "type": "Point", "coordinates": [ -88.97722, 40.14714 ] } },
{ "type": "Feature", "properties": { "city": "Cobleskill", "latitude": 42.67962, "longitude": -74.47452, "name": "Taco Bell", "province": "NY" }, "geometry": { "type": "Point", "coordinates": [ -74.47452, 42.67962 ] } },
{ "type": "Feature", "properties": { "city": "Ogdensburg", "latitude": 44.690205, "longitude": -75.4774, "name": "McDonald's", "province": "NY" }, "geometry": { "type": "Point", "coordinates": [ -75.4774, 44.690205 ] } },
{ "type": "Feature", "properties": { "city": "Monmouth", "latitude": 40.9107, "longitude": -90.64483, "name": "Taco Bell", "province": "IL" }, "geometry": { "type": "Point", "coordinates": [ -90.64483, 40.9107 ] } },
{ "type": "Feature", "properties": { "city": "Eastlake", "latitude": 41.642781, "longitude": -81.468481, "name": "Burger King", "province": "OH" }, "geometry": { "type": "Point", "coordinates": [ -81.468481, 41.642781 ] } },
{ "type": "Feature", "properties": { "city": "Jefferson City", "latitude": 38.58174, "longitude": -92.20713, "name": "Captain D's", "province": "MO" }, "geometry": { "type": "Point", "coordinates": [ -92.20713, 38.58174 ] } },
{ "type": "Feature", "properties": { "city": "Fairfield", "latitude": 38.37957, "longitude": -88.37697, "name": "McDonald's", "province": "IL" }, "geometry": { "type": "Point", "coordinates": [ -88.37697, 38.37957 ] } },
{ "type": "Feature", "properties": { "city": "Jefferson City", "latitude": 38.58134, "longitude": -92.21398, "name": "Jack in the Box", "province": "MO" }, "geometry": { "type": "Point", "coordinates": [ -92.21398, 38.58134 ] } },
{ "type": "Feature", "properties": { "city": "Murphysboro", "latitude": 37.78839, "longitude": -89.32524, "name": "McDonald's", "province": "IL" }, "geometry": { "type": "Point", "coordinates": [ -89.32524, 37.78839 ] } },
{ "type": "Feature", "properties": { "city": "Atmore", "latitude": 31.02181, "longitude": -87.49386, "name": "Burger King", "province": "AL" }, "geometry": { "type": "Point", "coordinates": [ -87.49386, 31.02181 ] } },
{ "type": "Feature", "properties": { "city": "Greenville", "latitude": 38.87866, "longitude": -89.39077, "name": "Taco Bell", "province": "IL" }, "geometry": { "type": "Point", "coordinates": [ -89.39077, 38.87866 ] } },
{ "type": "Feature", "properties": { "city": "Bronx", "latitude": 40.828053, "longitude": -73.92529, "name": "McDonald's", "province": "NY" }, "geometry": { "type": "Point", "coordinates": [ -73.92529, 40.828053 ] } },
{ "type": "Feature", "properties": { "city": "New York", "latitude": 40.757015, "longitude": -73.98944, "name": "Five Guys", "province": "NY" }, "geometry": { "type": "Point", "coordinates": [ -73.98944, 40.757015 ] } },
{ "type": "Feature", "properties": { "city": "Fairfax", "latitude": 38.858362, "longitude": -77.376969, "name": "Pei Wei", "province": "VA" }, "geometry": { "type": "Point", "coordinates": [ -77.376969, 38.858362 ] } },
{ "type": "Feature", "properties": { "city": "Woodbridge", "latitude": 38.637623, "longitude": -77.297706, "name": "Wendy's", "province": "VA" }, "geometry": { "type": "Point", "coordinates": [ -77.297706, 38.637623 ] } },
{ "type": "Feature", "properties": { "city": "Louisville", "latitude": 38.1575, "longitude": -85.7112, "name": "Arby's", "province": "KY" }, "geometry": { "type": "Point", "coordinates": [ -85.7112, 38.1575 ] } },
{ "type": "Feature", "properties": { "city": "Louisville", "latitude": 38.13627, "longitude": -85.71168, "name": "McDonald's", "province": "KY" }, "geometry": { "type": "Point", "coordinates": [ -85.71168, 38.13627 ] } },
{ "type": "Feature", "properties": { "city": "Louisville", "latitude": 38.156731, "longitude": -85.712124, "name": "Taco Bell", "province": "KY" }, "geometry": { "type": "Point", "coordinates": [ -85.712124, 38.156731 ] } },
{ "type": "Feature", "properties": { "city": "Nixa", "latitude": 37.053586, "longitude": -93.302767, "name": "Arby's", "province": "MO" }, "geometry": { "type": "Point", "coordinates": [ -93.302767, 37.053586 ] } },
{ "type": "Feature", "properties": { "city": "Greenville", "latitude": 34.852468, "longitude": -82.451033, "name": "Taco Bell", "province": "SC" }, "geometry": { "type": "Point", "coordinates": [ -82.451033, 34.852468 ] } },
{ "type": "Feature", "properties": { "city": "Greenville", "latitude": 34.853023, "longitude": -82.452875, "name": "McDonald's", "province": "SC" }, "geometry": { "type": "Point", "coordinates": [ -82.452875, 34.853023 ] } },
{ "type": "Feature", "properties": { "city": "Clarksville", "latitude": 36.5098, "longitude": -87.2763, "name": "SONIC Drive In", "province": "TN" }, "geometry": { "type": "Point", "coordinates": [ -87.2763, 36.5098 ] } },
{ "type": "Feature", "properties": { "city": "Clarksville", "latitude": 36.5401, "longitude": -87.3663, "name": "Taco Bell", "province": "TN" }, "geometry": { "type": "Point", "coordinates": [ -87.3663, 36.5401 ] } },
{ "type": "Feature", "properties": { "city": "Knoxville", "latitude": 35.90428, "longitude": -84.14246, "name": "Wendy's", "province": "TN" }, "geometry": { "type": "Point", "coordinates": [ -84.14246, 35.90428 ] } },
{ "type": "Feature", "properties": { "city": "Corpus Christi", "latitude": 27.856211, "longitude": -97.629141, "name": "Burger King", "province": "TX" }, "geometry": { "type": "Point", "coordinates": [ -97.629141, 27.856211 ] } },
{ "type": "Feature", "properties": { "city": "Dayton", "latitude": 30.046579, "longitude": -94.886769, "name": "Jack in the Box", "province": "TX" }, "geometry": { "type": "Point", "coordinates": [ -94.886769, 30.046579 ] } },
{ "type": "Feature", "properties": { "city": "Springfield", "latitude": 37.15422, "longitude": -93.29613, "name": "Jimmy John's", "province": "MO" }, "geometry": { "type": "Point", "coordinates": [ -93.29613, 37.15422 ] } },
{ "type": "Feature", "properties": { "city": "Nashville", "latitude": 36.1217, "longitude": -86.7054, "name": "McDonald's", "province": "TN" }, "geometry": { "type": "Point", "coordinates": [ -86.7054, 36.1217 ] } },
{ "type": "Feature", "properties": { "city": "Mineral Wells", "latitude": 32.8095, "longitude": -98.0953, "name": "Taco Bell", "province": "TX" }, "geometry": { "type": "Point", "coordinates": [ -98.0953, 32.8095 ] } },
{ "type": "Feature", "properties": { "city": "Victoria", "latitude": 28.8117, "longitude": -96.9739, "name": "Wendy's", "province": "TX" }, "geometry": { "type": "Point", "coordinates": [ -96.9739, 28.8117 ] } },
{ "type": "Feature", "properties": { "city": "Orlando", "latitude": 28.552592, "longitude": -81.464927, "name": "Krystal", "province": "FL" }, "geometry": { "type": "Point", "coordinates": [ -81.464927, 28.552592 ] } },
{ "type": "Feature", "properties": { "city": "Lafayette", "latitude": 37.891487, "longitude": -122.12335, "name": "Baja Fresh", "province": "CA" }, "geometry": { "type": "Point", "coordinates": [ -122.12335, 37.891487 ] } },
{ "type": "Feature", "properties": { "city": "Denham Springs", "latitude": 30.528322, "longitude": -90.956294, "name": "Mcdonald's", "province": "LA" }, "geometry": { "type": "Point", "coordinates": [ -90.956294, 30.528322 ] } },
{ "type": "Feature", "properties": { "city": "Bolivar", "latitude": 37.60553, "longitude": -93.40686, "name": "McDonald's", "province": "MO" }, "geometry": { "type": "Point", "coordinates": [ -93.40686, 37.60553 ] } },
{ "type": "Feature", "properties": { "city": "Bolivar", "latitude": 37.596828, "longitude": -93.403066, "name": "Taco Bell", "province": "MO" }, "geometry": { "type": "Point", "coordinates": [ -93.403066, 37.596828 ] } },
{ "type": "Feature", "properties": { "city": "Jefferson City", "latitude": 38.55503, "longitude": -92.19907, "name": "Taco Bell", "province": "MO" }, "geometry": { "type": "Point", "coordinates": [ -92.19907, 38.55503 ] } },
{ "type": "Feature", "properties": { "city": "Jefferson City", "latitude": 38.581753, "longitude": -92.219515, "name": "Taco Bell", "province": "MO" }, "geometry": { "type": "Point", "coordinates": [ -92.219515, 38.581753 ] } },
{ "type": "Feature", "properties": { "city": "Jefferson City", "latitude": 38.58141, "longitude": -92.24298, "name": "Chick-fil-A", "province": "MO" }, "geometry": { "type": "Point", "coordinates": [ -92.24298, 38.58141 ] } },
{ "type": "Feature", "properties": { "city": "Bolivar", "latitude": 37.596372, "longitude": -93.402919, "name": "Burger King", "province": "MO" }, "geometry": { "type": "Point", "coordinates": [ -93.402919, 37.596372 ] } },
{ "type": "Feature", "properties": { "city": "Southport", "latitude": 33.9516, "longitude": -78.0426, "name": "Bojangles' Famous Chicken 'n Biscuits", "province": "NC" }, "geometry": { "type": "Point", "coordinates": [ -78.0426, 33.9516 ] } },
{ "type": "Feature", "properties": { "city": "Quincy", "latitude": 39.93634, "longitude": -91.35881, "name": "Burger King", "province": "IL" }, "geometry": { "type": "Point", "coordinates": [ -91.35881, 39.93634 ] } },
{ "type": "Feature", "properties": { "city": "Rogers", "latitude": 36.32953, "longitude": -94.12543, "name": "Arby's", "province": "AR" }, "geometry": { "type": "Point", "coordinates": [ -94.12543, 36.32953 ] } },
{ "type": "Feature", "properties": { "city": "Springdale", "latitude": 36.167387, "longitude": -94.143617, "name": "Wendy's", "province": "AR" }, "geometry": { "type": "Point", "coordinates": [ -94.143617, 36.167387 ] } },
{ "type": "Feature", "properties": { "city": "Huntsville", "latitude": 36.08869, "longitude": -93.74247, "name": "SUBWAY", "province": "AR" }, "geometry": { "type": "Point", "coordinates": [ -93.74247, 36.08869 ] } },
{ "type": "Feature", "properties": { "city": "Springdale", "latitude": 36.1825, "longitude": -94.138655, "name": "Hardee's", "province": "AR" }, "geometry": { "type": "Point", "coordinates": [ -94.138655, 36.1825 ] } },
{ "type": "Feature", "properties": { "city": "Springdale", "latitude": 36.16732, "longitude": -94.11799, "name": "McDonald's", "province": "AR" }, "geometry": { "type": "Point", "coordinates": [ -94.11799, 36.16732 ] } },
{ "type": "Feature", "properties": { "city": "Springdale", "latitude": 36.17076, "longitude": -94.13973, "name": "Burger King", "province": "AR" }, "geometry": { "type": "Point", "coordinates": [ -94.13973, 36.17076 ] } },
{ "type": "Feature", "properties": { "city": "Keokuk", "latitude": 40.40352, "longitude": -91.39082, "name": "McDonald's", "province": "IA" }, "geometry": { "type": "Point", "coordinates": [ -91.39082, 40.40352 ] } },
{ "type": "Feature", "properties": { "city": "Fort Madison", "latitude": 40.63043, "longitude": -91.32385, "name": "Taco Bell", "province": "IA" }, "geometry": { "type": "Point", "coordinates": [ -91.32385, 40.63043 ] } },
{ "type": "Feature", "properties": { "city": "Joplin", "latitude": 37.079654, "longitude": -94.477436, "name": "Taco Bell", "province": "MO" }, "geometry": { "type": "Point", "coordinates": [ -94.477436, 37.079654 ] } },
{ "type": "Feature", "properties": { "city": "Miami", "latitude": 25.594612, "longitude": -80.356141, "name": "Pollo Tropical", "province": "FL" }, "geometry": { "type": "Point", "coordinates": [ -80.356141, 25.594612 ] } },
{ "type": "Feature", "properties": { "city": "Saint James", "latitude": 38.003166, "longitude": -91.61875, "name": "Burger King", "province": "MO" }, "geometry": { "type": "Point", "coordinates": [ -91.61875, 38.003166 ] } },
{ "type": "Feature", "properties": { "city": "New Orleans", "latitude": 29.956277, "longitude": -90.217056, "name": "McDonald's", "province": "LA" }, "geometry": { "type": "Point", "coordinates": [ -90.217056, 29.956277 ] } },
{ "type": "Feature", "properties": { "city": "Tupelo", "latitude": 34.252985, "longitude": -88.716015, "name": "Wendy's", "province": "MS" }, "geometry": { "type": "Point", "coordinates": [ -88.716015, 34.252985 ] } },
{ "type": "Feature", "properties": { "city": "Tupelo", "latitude": 34.25764, "longitude": -88.71664, "name": "Burger King", "province": "MS" }, "geometry": { "type": "Point", "coordinates": [ -88.71664, 34.25764 ] } },
{ "type": "Feature", "properties": { "city": "Pontotoc", "latitude": 34.257816, "longitude": -89.018178, "name": "Burger King", "province": "MS" }, "geometry": { "type": "Point", "coordinates": [ -89.018178, 34.257816 ] } },
{ "type": "Feature", "properties": { "city": "Franklin", "latitude": 35.915443, "longitude": -86.833983, "name": "Arby's", "province": "TN" }, "geometry": { "type": "Point", "coordinates": [ -86.833983, 35.915443 ] } },
{ "type": "Feature", "properties": { "city": "Pontotoc", "latitude": 34.25054, "longitude": -89.01787, "name": "Domino's Pizza", "province": "MS" }, "geometry": { "type": "Point", "coordinates": [ -89.01787, 34.25054 ] } },
{ "type": "Feature", "properties": { "city": "Tupelo", "latitude": 34.2297, "longitude": -88.7196, "name": "Domino's Pizza", "province": "MS" }, "geometry": { "type": "Point", "coordinates": [ -88.7196, 34.2297 ] } },
{ "type": "Feature", "properties": { "city": "Lucedale", "latitude": 30.733883, "longitude": -88.4936, "name": "Burger King", "province": "AL" }, "geometry": { "type": "Point", "coordinates": [ -88.4936, 30.733883 ] } },
{ "type": "Feature", "properties": { "city": "Biloxi", "latitude": 30.40158, "longitude": -88.97576, "name": "Burger King", "province": "AL" }, "geometry": { "type": "Point", "coordinates": [ -88.97576, 30.40158 ] } },
{ "type": "Feature", "properties": { "city": "Pearl", "latitude": 32.26905, "longitude": -90.13568, "name": "Waffle House", "province": "AL" }, "geometry": { "type": "Point", "coordinates": [ -90.13568, 32.26905 ] } },
{ "type": "Feature", "properties": { "city": "Jackson", "latitude": 32.300625709000002, "longitude": -90.258128236000005, "name": "Popeye's Chicken & Biscuits", "province": "AL" }, "geometry": { "type": "Point", "coordinates": [ -90.258128236, 32.300625709 ] } },
{ "type": "Feature", "properties": { "city": "Jackson", "latitude": 32.328147485000002, "longitude": -90.251587368000003, "name": "Popeye's Chicken & Biscuits", "province": "AL" }, "geometry": { "type": "Point", "coordinates": [ -90.251587368, 32.328147485 ] } },
{ "type": "Feature", "properties": { "city": "Garner", "latitude": 43.10586, "longitude": -93.607445, "name": "Hardee's", "province": "IA" }, "geometry": { "type": "Point", "coordinates": [ -93.607445, 43.10586 ] } },
{ "type": "Feature", "properties": { "city": "Spencer", "latitude": 43.12581, "longitude": -95.14723, "name": "Burger King", "province": "IA" }, "geometry": { "type": "Point", "coordinates": [ -95.14723, 43.12581 ] } },
{ "type": "Feature", "properties": { "city": "Fairfield", "latitude": 41.00652, "longitude": -91.98436, "name": "McDonald's", "province": "IA" }, "geometry": { "type": "Point", "coordinates": [ -91.98436, 41.00652 ] } },
{ "type": "Feature", "properties": { "city": "Fort Dodge", "latitude": 42.50182, "longitude": -94.15404, "name": "Jimmy Johns", "province": "IA" }, "geometry": { "type": "Point", "coordinates": [ -94.15404, 42.50182 ] } },
{ "type": "Feature", "properties": { "city": "Fort Dodge", "latitude": 42.50071, "longitude": -94.16583, "name": "Wendy's", "province": "IA" }, "geometry": { "type": "Point", "coordinates": [ -94.16583, 42.50071 ] } },
{ "type": "Feature", "properties": { "city": "Fort Dodge", "latitude": 42.5011, "longitude": -94.16261, "name": "McDonald's", "province": "IA" }, "geometry": { "type": "Point", "coordinates": [ -94.16261, 42.5011 ] } },
{ "type": "Feature", "properties": { "city": "Dubuque", "latitude": 42.502143, "longitude": -90.72184, "name": "Arby's", "province": "IA" }, "geometry": { "type": "Point", "coordinates": [ -90.72184, 42.502143 ] } },
{ "type": "Feature", "properties": { "city": "Dubuque", "latitude": 42.5121, "longitude": -90.6552, "name": "Wendy's", "province": "IA" }, "geometry": { "type": "Point", "coordinates": [ -90.6552, 42.5121 ] } },
{ "type": "Feature", "properties": { "city": "Memphis", "latitude": 35.099798, "longitude": -89.848067, "name": "Back Yard Burgers", "province": "TN" }, "geometry": { "type": "Point", "coordinates": [ -89.848067, 35.099798 ] } },
{ "type": "Feature", "properties": { "city": "Spirit Lake", "latitude": 43.42173, "longitude": -95.12424, "name": "Burger King", "province": "IA" }, "geometry": { "type": "Point", "coordinates": [ -95.12424, 43.42173 ] } },
{ "type": "Feature", "properties": { "city": "Tifton", "latitude": 31.458252, "longitude": -83.526697, "name": "Krystal", "province": "GA" }, "geometry": { "type": "Point", "coordinates": [ -83.526697, 31.458252 ] } },
{ "type": "Feature", "properties": { "city": "Tifton", "latitude": 31.4575, "longitude": -83.52582, "name": "Arby's", "province": "GA" }, "geometry": { "type": "Point", "coordinates": [ -83.52582, 31.4575 ] } },
{ "type": "Feature", "properties": { "city": "Tifton", "latitude": 31.451335, "longitude": -83.524973, "name": "Bojangles' Famous Chicken 'n Biscuits", "province": "GA" }, "geometry": { "type": "Point", "coordinates": [ -83.524973, 31.451335 ] } },
{ "type": "Feature", "properties": { "city": "Dubuque", "latitude": 42.512515, "longitude": -90.666233, "name": "Hardee's", "province": "IA" }, "geometry": { "type": "Point", "coordinates": [ -90.666233, 42.512515 ] } },
{ "type": "Feature", "properties": { "city": "Dubuque", "latitude": 42.499766, "longitude": -90.665046, "name": "McDonald's", "province": "IA" }, "geometry": { "type": "Point", "coordinates": [ -90.665046, 42.499766 ] } },
{ "type": "Feature", "properties": { "city": "Dubuque", "latitude": 42.49936, "longitude": -90.69409, "name": "Hardee's", "province": "IA" }, "geometry": { "type": "Point", "coordinates": [ -90.69409, 42.49936 ] } },
{ "type": "Feature", "properties": { "city": "Memphis", "latitude": 35.11467, "longitude": -89.94567, "name": "McDonald's", "province": "TN" }, "geometry": { "type": "Point", "coordinates": [ -89.94567, 35.11467 ] } },
{ "type": "Feature", "properties": { "city": "Reidsville", "latitude": 32.0872, "longitude": -82.1169, "name": "McDonald's", "province": "GA" }, "geometry": { "type": "Point", "coordinates": [ -82.1169, 32.0872 ] } },
{ "type": "Feature", "properties": { "city": "Robinsonville", "latitude": 34.819435, "longitude": -90.315636, "name": "Checkers", "province": "MS" }, "geometry": { "type": "Point", "coordinates": [ -90.315636, 34.819435 ] } },
{ "type": "Feature", "properties": { "city": "Cedar Falls", "latitude": 42.51433, "longitude": -92.44636, "name": "McDonald's", "province": "IA" }, "geometry": { "type": "Point", "coordinates": [ -92.44636, 42.51433 ] } },
{ "type": "Feature", "properties": { "city": "Waverly", "latitude": 42.71363, "longitude": -92.47495, "name": "McDonald's", "province": "IA" }, "geometry": { "type": "Point", "coordinates": [ -92.47495, 42.71363 ] } },
{ "type": "Feature", "properties": { "city": "Cedar Falls", "latitude": 42.537782, "longitude": -92.452172, "name": "McDonald's", "province": "IA" }, "geometry": { "type": "Point", "coordinates": [ -92.452172, 42.537782 ] } },
{ "type": "Feature", "properties": { "city": "Southaven", "latitude": 34.963048, "longitude": -89.991071, "name": "Krystal", "province": "MS" }, "geometry": { "type": "Point", "coordinates": [ -89.991071, 34.963048 ] } },
{ "type": "Feature", "properties": { "city": "Memphis", "latitude": 35.14451, "longitude": -90.0163, "name": "Burger King", "province": "TN" }, "geometry": { "type": "Point", "coordinates": [ -90.0163, 35.14451 ] } },
{ "type": "Feature", "properties": { "city": "Memphis", "latitude": 35.020951, "longitude": -89.849198, "name": "Burger King", "province": "TN" }, "geometry": { "type": "Point", "coordinates": [ -89.849198, 35.020951 ] } },
{ "type": "Feature", "properties": { "city": "Memphis", "latitude": 35.06408, "longitude": -89.9415, "name": "Krystal", "province": "TN" }, "geometry": { "type": "Point", "coordinates": [ -89.9415, 35.06408 ] } },
{ "type": "Feature", "properties": { "city": "Memphis", "latitude": 35.068122, "longitude": -89.944386, "name": "Burger King", "province": "TN" }, "geometry": { "type": "Point", "coordinates": [ -89.944386, 35.068122 ] } },
{ "type": "Feature", "properties": { "city": "Memphis", "latitude": 35.13482, "longitude": -89.99183, "name": "Burger King", "province": "TN" }, "geometry": { "type": "Point", "coordinates": [ -89.99183, 35.13482 ] } },
{ "type": "Feature", "properties": { "city": "Ottumwa", "latitude": 41.017663, "longitude": -92.437886, "name": "Arby's", "province": "IA" }, "geometry": { "type": "Point", "coordinates": [ -92.437886, 41.017663 ] } },
{ "type": "Feature", "properties": { "city": "Ottumwa", "latitude": 41.016358, "longitude": -92.438456, "name": "Burger King", "province": "IA" }, "geometry": { "type": "Point", "coordinates": [ -92.438456, 41.016358 ] } },
{ "type": "Feature", "properties": { "city": "Billings", "latitude": 45.78377, "longitude": -108.58727, "name": "Domino's Pizza", "province": "MT" }, "geometry": { "type": "Point", "coordinates": [ -108.58727, 45.78377 ] } },
{ "type": "Feature", "properties": { "city": "Billings", "latitude": 45.81531, "longitude": -108.4716, "name": "Domino's Pizza", "province": "MT" }, "geometry": { "type": "Point", "coordinates": [ -108.4716, 45.81531 ] } },
{ "type": "Feature", "properties": { "city": "Creston", "latitude": 41.051853, "longitude": -94.367339, "name": "McDonald's", "province": "IA" }, "geometry": { "type": "Point", "coordinates": [ -94.367339, 41.051853 ] } },
{ "type": "Feature", "properties": { "city": "Decorah", "latitude": 43.29087, "longitude": -91.79683, "name": "McDonald's", "province": "IA" }, "geometry": { "type": "Point", "coordinates": [ -91.79683, 43.29087 ] } },
{ "type": "Feature", "properties": { "city": "Decorah", "latitude": 43.2915, "longitude": -91.7971, "name": "Integrated Therapy Specialists: Arnold D Larson", "province": "IA" }, "geometry": { "type": "Point", "coordinates": [ -91.7971, 43.2915 ] } },
{ "type": "Feature", "properties": { "city": "Swainsboro", "latitude": 32.584458, "longitude": -82.321669, "name": "McDonald's", "province": "GA" }, "geometry": { "type": "Point", "coordinates": [ -82.321669, 32.584458 ] } },
{ "type": "Feature", "properties": { "city": "Swainsboro", "latitude": 32.5931, "longitude": -82.3314, "name": "KFC", "province": "GA" }, "geometry": { "type": "Point", "coordinates": [ -82.3314, 32.5931 ] } },
{ "type": "Feature", "properties": { "city": "Swainsboro", "latitude": 32.58476, "longitude": -82.321876, "name": "Hardee's", "province": "GA" }, "geometry": { "type": "Point", "coordinates": [ -82.321876, 32.58476 ] } },
{ "type": "Feature", "properties": { "city": "Swainsboro", "latitude": 32.58951, "longitude": -82.32731, "name": "Burger King", "province": "GA" }, "geometry": { "type": "Point", "coordinates": [ -82.32731, 32.58951 ] } },
{ "type": "Feature", "properties": { "city": "Burlington", "latitude": 40.810887, "longitude": -91.141513, "name": "Wendy's", "province": "IA" }, "geometry": { "type": "Point", "coordinates": [ -91.141513, 40.810887 ] } },
{ "type": "Feature", "properties": { "city": "Burlington", "latitude": 40.807291, "longitude": -91.142192, "name": "Arby's", "province": "IA" }, "geometry": { "type": "Point", "coordinates": [ -91.142192, 40.807291 ] } },
{ "type": "Feature", "properties": { "city": "Clinton", "latitude": 41.85268, "longitude": -90.18691, "name": "Jimmy John's", "province": "IA" }, "geometry": { "type": "Point", "coordinates": [ -90.18691, 41.85268 ] } },
{ "type": "Feature", "properties": { "city": "Clinton", "latitude": 41.85137, "longitude": -90.18702, "name": "McDonald's", "province": "IA" }, "geometry": { "type": "Point", "coordinates": [ -90.18702, 41.85137 ] } },
{ "type": "Feature", "properties": { "city": "Clinton", "latitude": 41.852665, "longitude": -90.186586, "name": "Wendy's", "province": "IA" }, "geometry": { "type": "Point", "coordinates": [ -90.186586, 41.852665 ] } },
{ "type": "Feature", "properties": { "city": "Clinton", "latitude": 41.816011, "longitude": -90.229246, "name": "McDonald's", "province": "IA" }, "geometry": { "type": "Point", "coordinates": [ -90.229246, 41.816011 ] } },
{ "type": "Feature", "properties": { "city": "Carroll", "latitude": 42.06454, "longitude": -94.86163, "name": "Jimmy John's", "province": "IA" }, "geometry": { "type": "Point", "coordinates": [ -94.86163, 42.06454 ] } },
{ "type": "Feature", "properties": { "city": "Carroll", "latitude": 42.0715, "longitude": -94.8767, "name": "McDonald's", "province": "IA" }, "geometry": { "type": "Point", "coordinates": [ -94.8767, 42.0715 ] } },
{ "type": "Feature", "properties": { "city": "Carroll", "latitude": 42.065153, "longitude": -94.843281, "name": "Arby's", "province": "IA" }, "geometry": { "type": "Point", "coordinates": [ -94.843281, 42.065153 ] } },
{ "type": "Feature", "properties": { "city": "Carroll", "latitude": 42.07128, "longitude": -94.87785, "name": "Burger King", "province": "IA" }, "geometry": { "type": "Point", "coordinates": [ -94.87785, 42.07128 ] } },
{ "type": "Feature", "properties": { "city": "Storm Lake", "latitude": 42.645464, "longitude": -95.188684, "name": "Hardee's", "province": "IA" }, "geometry": { "type": "Point", "coordinates": [ -95.188684, 42.645464 ] } },
{ "type": "Feature", "properties": { "city": "Storm Lake", "latitude": 42.6453, "longitude": -95.1881, "name": "KFC", "province": "IA" }, "geometry": { "type": "Point", "coordinates": [ -95.1881, 42.6453 ] } },
{ "type": "Feature", "properties": { "city": "Storm Lake", "latitude": 42.655465, "longitude": -95.20075, "name": "Burger King", "province": "IA" }, "geometry": { "type": "Point", "coordinates": [ -95.20075, 42.655465 ] } },
{ "type": "Feature", "properties": { "city": "Mason City", "latitude": 43.147806, "longitude": -93.236725, "name": "Arby's", "province": "IA" }, "geometry": { "type": "Point", "coordinates": [ -93.236725, 43.147806 ] } },
{ "type": "Feature", "properties": { "city": "Mason City", "latitude": 43.147024, "longitude": -93.19974, "name": "Hardee's", "province": "IA" }, "geometry": { "type": "Point", "coordinates": [ -93.19974, 43.147024 ] } },
{ "type": "Feature", "properties": { "city": "Mason City", "latitude": 43.148534, "longitude": -93.235558, "name": "Burger King", "province": "IA" }, "geometry": { "type": "Point", "coordinates": [ -93.235558, 43.148534 ] } },
{ "type": "Feature", "properties": { "city": "Corinth", "latitude": 34.91913, "longitude": -88.51157, "name": "Domino's Pizza", "province": "MS" }, "geometry": { "type": "Point", "coordinates": [ -88.51157, 34.91913 ] } },
{ "type": "Feature", "properties": { "city": "Newton", "latitude": 41.699413, "longitude": -93.04532, "name": "Burger King", "province": "IA" }, "geometry": { "type": "Point", "coordinates": [ -93.04532, 41.699413 ] } },
{ "type": "Feature", "properties": { "city": "Moscow", "latitude": 46.72966, "longitude": -117.00437, "name": "Domino's Pizza", "province": "ID" }, "geometry": { "type": "Point", "coordinates": [ -117.00437, 46.72966 ] } },
{ "type": "Feature", "properties": { "city": "Boone", "latitude": 36.201496, "longitude": -81.656779, "name": "Burger King", "province": "NC" }, "geometry": { "type": "Point", "coordinates": [ -81.656779, 36.201496 ] } },
{ "type": "Feature", "properties": { "city": "Boone", "latitude": 36.21992, "longitude": -81.68616, "name": "Jimmy John's", "province": "NC" }, "geometry": { "type": "Point", "coordinates": [ -81.68616, 36.21992 ] } },
{ "type": "Feature", "properties": { "city": "Boone", "latitude": 36.19887, "longitude": -81.65861, "name": "Jimmy John's", "province": "NC" }, "geometry": { "type": "Point", "coordinates": [ -81.65861, 36.19887 ] } },
{ "type": "Feature", "properties": { "city": "Mountain Home", "latitude": 43.14158, "longitude": -115.66251, "name": "Jack In The Box", "province": "ID" }, "geometry": { "type": "Point", "coordinates": [ -115.66251, 43.14158 ] } },
{ "type": "Feature", "properties": { "city": "Mountain Home", "latitude": 43.136722, "longitude": -115.665115, "name": "Wendy's", "province": "ID" }, "geometry": { "type": "Point", "coordinates": [ -115.665115, 43.136722 ] } },
{ "type": "Feature", "properties": { "city": "Mountain Home", "latitude": 43.1371, "longitude": -115.66442, "name": "McDonald's", "province": "ID" }, "geometry": { "type": "Point", "coordinates": [ -115.66442, 43.1371 ] } },
{ "type": "Feature", "properties": { "city": "Washington", "latitude": 35.555, "longitude": -77.0592, "name": "Waffle House", "province": "NC" }, "geometry": { "type": "Point", "coordinates": [ -77.0592, 35.555 ] } },
{ "type": "Feature", "properties": { "city": "Sioux Center", "latitude": 43.09082, "longitude": -96.17456, "name": "McDonald's", "province": "IA" }, "geometry": { "type": "Point", "coordinates": [ -96.17456, 43.09082 ] } },
{ "type": "Feature", "properties": { "city": "Twin Falls", "latitude": 42.59206, "longitude": -114.45867, "name": "McDonald's", "province": "ID" }, "geometry": { "type": "Point", "coordinates": [ -114.45867, 42.59206 ] } },
{ "type": "Feature", "properties": { "city": "Twin Falls", "latitude": 42.56322, "longitude": -114.45229, "name": "Pizza Hut", "province": "ID" }, "geometry": { "type": "Point", "coordinates": [ -114.45229, 42.56322 ] } },
{ "type": "Feature", "properties": { "city": "Twin Falls", "latitude": 42.56708, "longitude": -114.46094, "name": "McDonald's", "province": "ID" }, "geometry": { "type": "Point", "coordinates": [ -114.46094, 42.56708 ] } },
{ "type": "Feature", "properties": { "city": "Independence", "latitude": 42.468862, "longitude": -91.895944, "name": "Burger King", "province": "IA" }, "geometry": { "type": "Point", "coordinates": [ -91.895944, 42.468862 ] } },
{ "type": "Feature", "properties": { "city": "Independence", "latitude": 42.46783, "longitude": -91.91736, "name": "McDonald's", "province": "IA" }, "geometry": { "type": "Point", "coordinates": [ -91.91736, 42.46783 ] } },
{ "type": "Feature", "properties": { "city": "Swansboro", "latitude": 34.69101, "longitude": -77.06811, "name": "Quiznos", "province": "NC" }, "geometry": { "type": "Point", "coordinates": [ -77.06811, 34.69101 ] } },
{ "type": "Feature", "properties": { "city": "Blackfoot", "latitude": 43.196641, "longitude": -112.35846, "name": "Arby's", "province": "ID" }, "geometry": { "type": "Point", "coordinates": [ -112.35846, 43.196641 ] } },
{ "type": "Feature", "properties": { "city": "Blackfoot", "latitude": 43.19695, "longitude": -112.35766, "name": "Burger King", "province": "ID" }, "geometry": { "type": "Point", "coordinates": [ -112.35766, 43.19695 ] } },
{ "type": "Feature", "properties": { "city": "Leland", "latitude": 34.2126, "longitude": -78.0233, "name": "Arby's", "province": "NC" }, "geometry": { "type": "Point", "coordinates": [ -78.0233, 34.2126 ] } },
{ "type": "Feature", "properties": { "city": "Taylorville", "latitude": 39.55646, "longitude": -89.29686, "name": "Wendy's", "province": "IL" }, "geometry": { "type": "Point", "coordinates": [ -89.29686, 39.55646 ] } },
{ "type": "Feature", "properties": { "city": "Taylorville", "latitude": 39.555018, "longitude": -89.297434, "name": "Taco Bell", "province": "IL" }, "geometry": { "type": "Point", "coordinates": [ -89.297434, 39.555018 ] } },
{ "type": "Feature", "properties": { "city": "Taylorville", "latitude": 39.5542, "longitude": -89.297, "name": "KFC", "province": "IL" }, "geometry": { "type": "Point", "coordinates": [ -89.297, 39.5542 ] } },
{ "type": "Feature", "properties": { "city": "Paw Paw", "latitude": 42.211187, "longitude": -85.890822, "name": "Arby's", "province": "MI" }, "geometry": { "type": "Point", "coordinates": [ -85.890822, 42.211187 ] } },
{ "type": "Feature", "properties": { "city": "Wilmington", "latitude": 34.264065, "longitude": -77.852936, "name": "Burger King", "province": "NC" }, "geometry": { "type": "Point", "coordinates": [ -77.852936, 34.264065 ] } },
{ "type": "Feature", "properties": { "city": "Wilmington", "latitude": 34.22091, "longitude": -77.88306, "name": "Burger King", "province": "NC" }, "geometry": { "type": "Point", "coordinates": [ -77.88306, 34.22091 ] } },
{ "type": "Feature", "properties": { "city": "Bourbonnais", "latitude": 41.188, "longitude": -87.8501, "name": "McDonalds", "province": "IL" }, "geometry": { "type": "Point", "coordinates": [ -87.8501, 41.188 ] } },
{ "type": "Feature", "properties": { "city": "Holly Ridge", "latitude": 34.427555, "longitude": -77.546369, "name": "Hardee's", "province": "NC" }, "geometry": { "type": "Point", "coordinates": [ -77.546369, 34.427555 ] } },
{ "type": "Feature", "properties": { "city": "Carolina Beach", "latitude": 34.0313, "longitude": -77.89517, "name": "McDonald's", "province": "NC" }, "geometry": { "type": "Point", "coordinates": [ -77.89517, 34.0313 ] } },
{ "type": "Feature", "properties": { "city": "Leland", "latitude": 34.233062, "longitude": -77.996404, "name": "Bojangles' Famous Chicken 'n Biscuits", "province": "NC" }, "geometry": { "type": "Point", "coordinates": [ -77.996404, 34.233062 ] } },
{ "type": "Feature", "properties": { "city": "Leland", "latitude": 34.2339, "longitude": -77.996, "name": "KFC", "province": "NC" }, "geometry": { "type": "Point", "coordinates": [ -77.996, 34.2339 ] } },
{ "type": "Feature", "properties": { "city": "Springfield", "latitude": 39.8167, "longitude": -89.6428, "name": "McDonald's", "province": "IL" }, "geometry": { "type": "Point", "coordinates": [ -89.6428, 39.8167 ] } },
{ "type": "Feature", "properties": { "city": "Osceola", "latitude": 41.025382, "longitude": -93.796834, "name": "Taco Bell", "province": "IA" }, "geometry": { "type": "Point", "coordinates": [ -93.796834, 41.025382 ] } },
{ "type": "Feature", "properties": { "city": "Tipton", "latitude": 41.77486, "longitude": -91.12799, "name": "Subway", "province": "IA" }, "geometry": { "type": "Point", "coordinates": [ -91.12799, 41.77486 ] } },
{ "type": "Feature", "properties": { "city": "Tipton", "latitude": 41.769334, "longitude": -91.128399, "name": "Hardee's", "province": "IA" }, "geometry": { "type": "Point", "coordinates": [ -91.128399, 41.769334 ] } },
{ "type": "Feature", "properties": { "city": "Fort Mill", "latitude": 35.0603, "longitude": -80.9922, "name": "McDonalds", "province": "SC" }, "geometry": { "type": "Point", "coordinates": [ -80.9922, 35.0603 ] } },
{ "type": "Feature", "properties": { "city": "Rigby", "latitude": 43.6813, "longitude": -111.9088, "name": "Wendy's", "province": "ID" }, "geometry": { "type": "Point", "coordinates": [ -111.9088, 43.6813 ] } },
{ "type": "Feature", "properties": { "city": "Idaho Falls", "latitude": 43.472946, "longitude": -111.985083, "name": "Taco Bell", "province": "ID" }, "geometry": { "type": "Point", "coordinates": [ -111.985083, 43.472946 ] } },
{ "type": "Feature", "properties": { "city": "Idaho Falls", "latitude": 43.49399, "longitude": -111.99958, "name": "Jack in the Box", "province": "ID" }, "geometry": { "type": "Point", "coordinates": [ -111.99958, 43.49399 ] } },
{ "type": "Feature", "properties": { "city": "Pocatello", "latitude": 42.86532, "longitude": -112.44441, "name": "Jack in the Box", "province": "ID" }, "geometry": { "type": "Point", "coordinates": [ -112.44441, 42.86532 ] } },
{ "type": "Feature", "properties": { "city": "Pocatello", "latitude": 42.86235, "longitude": -112.43917, "name": "Jimmy John's", "province": "ID" }, "geometry": { "type": "Point", "coordinates": [ -112.43917, 42.86235 ] } },
{ "type": "Feature", "properties": { "city": "Pocatello", "latitude": 42.89864, "longitude": -112.43338, "name": "Subway", "province": "ID" }, "geometry": { "type": "Point", "coordinates": [ -112.43338, 42.89864 ] } },
{ "type": "Feature", "properties": { "city": "Pocatello", "latitude": 42.88932, "longitude": -112.45208, "name": "Arby's", "province": "ID" }, "geometry": { "type": "Point", "coordinates": [ -112.45208, 42.88932 ] } },
{ "type": "Feature", "properties": { "city": "Pocatello", "latitude": 42.891976, "longitude": -112.451452, "name": "Wendy's", "province": "ID" }, "geometry": { "type": "Point", "coordinates": [ -112.451452, 42.891976 ] } },
{ "type": "Feature", "properties": { "city": "Anna", "latitude": 37.462935, "longitude": -89.22777, "name": "Burger King", "province": "IL" }, "geometry": { "type": "Point", "coordinates": [ -89.22777, 37.462935 ] } },
{ "type": "Feature", "properties": { "city": "Anna", "latitude": 37.459786, "longitude": -89.245351, "name": "Hardee's", "province": "IL" }, "geometry": { "type": "Point", "coordinates": [ -89.245351, 37.459786 ] } },
{ "type": "Feature", "properties": { "city": "Anna", "latitude": 37.462324, "longitude": -89.23027, "name": "Taco Bell", "province": "IL" }, "geometry": { "type": "Point", "coordinates": [ -89.23027, 37.462324 ] } },
{ "type": "Feature", "properties": { "city": "Rexburg", "latitude": 43.835842, "longitude": -111.77808, "name": "KFC", "province": "ID" }, "geometry": { "type": "Point", "coordinates": [ -111.77808, 43.835842 ] } },
{ "type": "Feature", "properties": { "city": "Rexburg", "latitude": 43.83563, "longitude": -111.77808, "name": "Wendy's", "province": "ID" }, "geometry": { "type": "Point", "coordinates": [ -111.77808, 43.83563 ] } },
{ "type": "Feature", "properties": { "city": "Rexburg", "latitude": 43.835073, "longitude": -111.778081, "name": "Jack in the Box", "province": "ID" }, "geometry": { "type": "Point", "coordinates": [ -111.778081, 43.835073 ] } },
{ "type": "Feature", "properties": { "city": "Rexburg", "latitude": 43.83369, "longitude": -111.77853, "name": "McDonald's", "province": "ID" }, "geometry": { "type": "Point", "coordinates": [ -111.77853, 43.83369 ] } },
{ "type": "Feature", "properties": { "city": "Rexburg", "latitude": 43.83341, "longitude": -111.77794, "name": "Dairy Queen", "province": "ID" }, "geometry": { "type": "Point", "coordinates": [ -111.77794, 43.83341 ] } },
{ "type": "Feature", "properties": { "city": "Rexburg", "latitude": 43.83616, "longitude": -111.77758, "name": "Arby's", "province": "ID" }, "geometry": { "type": "Point", "coordinates": [ -111.77758, 43.83616 ] } },
{ "type": "Feature", "properties": { "city": "Canton", "latitude": 40.55842, "longitude": -90.03364, "name": "Burger King", "province": "IL" }, "geometry": { "type": "Point", "coordinates": [ -90.03364, 40.55842 ] } },
{ "type": "Feature", "properties": { "city": "Canton", "latitude": 40.563491, "longitude": -90.035021, "name": "Hardee's", "province": "IL" }, "geometry": { "type": "Point", "coordinates": [ -90.035021, 40.563491 ] } },
{ "type": "Feature", "properties": { "city": "Centralia", "latitude": 38.52638, "longitude": -89.12477, "name": "McDonald's", "province": "IL" }, "geometry": { "type": "Point", "coordinates": [ -89.12477, 38.52638 ] } },
{ "type": "Feature", "properties": { "city": "Pontiac", "latitude": 40.87296, "longitude": -88.66152, "name": "Burger King", "province": "IL" }, "geometry": { "type": "Point", "coordinates": [ -88.66152, 40.87296 ] } },
{ "type": "Feature", "properties": { "city": "Pontiac", "latitude": 40.87297, "longitude": -88.65759, "name": "Taco Bell", "province": "IL" }, "geometry": { "type": "Point", "coordinates": [ -88.65759, 40.87297 ] } },
{ "type": "Feature", "properties": { "city": "Carbondale", "latitude": 37.73535, "longitude": -89.18663, "name": "McDonald's", "province": "IL" }, "geometry": { "type": "Point", "coordinates": [ -89.18663, 37.73535 ] } },
{ "type": "Feature", "properties": { "city": "Mount Vernon", "latitude": 38.313427, "longitude": -88.945891, "name": "Burger King", "province": "IL" }, "geometry": { "type": "Point", "coordinates": [ -88.945891, 38.313427 ] } },
{ "type": "Feature", "properties": { "city": "Mount Vernon", "latitude": 38.30087, "longitude": -88.903, "name": "Burger King", "province": "IL" }, "geometry": { "type": "Point", "coordinates": [ -88.903, 38.30087 ] } },
{ "type": "Feature", "properties": { "city": "Paducah", "latitude": 37.079123, "longitude": -88.683966, "name": "Taco Bell", "province": "KY" }, "geometry": { "type": "Point", "coordinates": [ -88.683966, 37.079123 ] } },
{ "type": "Feature", "properties": { "city": "Ottawa", "latitude": 41.354618, "longitude": -88.8412, "name": "Wendy's", "province": "IL" }, "geometry": { "type": "Point", "coordinates": [ -88.8412, 41.354618 ] } },
{ "type": "Feature", "properties": { "city": "Paducah", "latitude": 37.07607, "longitude": -88.68939, "name": "Wendy's", "province": "KY" }, "geometry": { "type": "Point", "coordinates": [ -88.68939, 37.07607 ] } },
{ "type": "Feature", "properties": { "city": "Rochelle", "latitude": 41.93507, "longitude": -89.03496, "name": "Wendy's", "province": "IL" }, "geometry": { "type": "Point", "coordinates": [ -89.03496, 41.93507 ] } },
{ "type": "Feature", "properties": { "city": "Jacksonville", "latitude": 39.723221, "longitude": -90.225307, "name": "Jimmy John's", "province": "IL" }, "geometry": { "type": "Point", "coordinates": [ -90.225307, 39.723221 ] } },
{ "type": "Feature", "properties": { "city": "Jacksonville", "latitude": 39.72263, "longitude": -90.24358, "name": "Burger King", "province": "IL" }, "geometry": { "type": "Point", "coordinates": [ -90.24358, 39.72263 ] } },
{ "type": "Feature", "properties": { "city": "Macomb", "latitude": 40.45991, "longitude": -90.64454, "name": "Arby's", "province": "IL" }, "geometry": { "type": "Point", "coordinates": [ -90.64454, 40.45991 ] } },
{ "type": "Feature", "properties": { "city": "Danville", "latitude": 40.119324, "longitude": -87.636202, "name": "McDonald's", "province": "IL" }, "geometry": { "type": "Point", "coordinates": [ -87.636202, 40.119324 ] } },
{ "type": "Feature", "properties": { "city": "Danville", "latitude": 40.138555, "longitude": -87.630379, "name": "Hardee's", "province": "IL" }, "geometry": { "type": "Point", "coordinates": [ -87.630379, 40.138555 ] } },
{ "type": "Feature", "properties": { "city": "Danville", "latitude": 40.116181, "longitude": -87.636225, "name": "Long John Silver's", "province": "IL" }, "geometry": { "type": "Point", "coordinates": [ -87.636225, 40.116181 ] } },
{ "type": "Feature", "properties": { "city": "Vincennes", "latitude": 38.65964, "longitude": -87.50887, "name": "Arby's", "province": "IN" }, "geometry": { "type": "Point", "coordinates": [ -87.50887, 38.65964 ] } },
{ "type": "Feature", "properties": { "city": "Decatur", "latitude": 40.834574, "longitude": -84.937724, "name": "Taco Bell", "province": "IN" }, "geometry": { "type": "Point", "coordinates": [ -84.937724, 40.834574 ] } },
{ "type": "Feature", "properties": { "city": "Decatur", "latitude": 40.81476, "longitude": -84.938277, "name": "Arby's", "province": "IN" }, "geometry": { "type": "Point", "coordinates": [ -84.938277, 40.81476 ] } },
{ "type": "Feature", "properties": { "city": "Pittsfield", "latitude": 39.606653, "longitude": -90.82158, "name": "Hardee's", "province": "IL" }, "geometry": { "type": "Point", "coordinates": [ -90.82158, 39.606653 ] } },
{ "type": "Feature", "properties": { "city": "Auburn", "latitude": 41.366782, "longitude": -85.065641, "name": "Penguin Point", "province": "IN" }, "geometry": { "type": "Point", "coordinates": [ -85.065641, 41.366782 ] } },
{ "type": "Feature", "properties": { "city": "Kendallville", "latitude": 41.452697, "longitude": -85.273445, "name": "Arby's", "province": "IN" }, "geometry": { "type": "Point", "coordinates": [ -85.273445, 41.452697 ] } },
{ "type": "Feature", "properties": { "city": "Kendallville", "latitude": 41.452288, "longitude": -85.267806, "name": "Wendy's", "province": "IN" }, "geometry": { "type": "Point", "coordinates": [ -85.267806, 41.452288 ] } },
{ "type": "Feature", "properties": { "city": "Kendallville", "latitude": 41.45062, "longitude": -85.24563, "name": "Burger King", "province": "IN" }, "geometry": { "type": "Point", "coordinates": [ -85.24563, 41.45062 ] } },
{ "type": "Feature", "properties": { "city": "Kendallville", "latitude": 41.452289, "longitude": -85.268745, "name": "McDonald's", "province": "IN" }, "geometry": { "type": "Point", "coordinates": [ -85.268745, 41.452289 ] } },
{ "type": "Feature", "properties": { "city": "Ligonier", "latitude": 41.412, "longitude": -85.5717, "name": "KFC", "province": "IN" }, "geometry": { "type": "Point", "coordinates": [ -85.5717, 41.412 ] } },
{ "type": "Feature", "properties": { "city": "Columbia City", "latitude": 41.169649, "longitude": -85.493215, "name": "Taco Bell", "province": "IN" }, "geometry": { "type": "Point", "coordinates": [ -85.493215, 41.169649 ] } },
{ "type": "Feature", "properties": { "city": "Litchfield", "latitude": 39.17805, "longitude": -89.67558, "name": "KFC", "province": "IL" }, "geometry": { "type": "Point", "coordinates": [ -89.67558, 39.17805 ] } },
{ "type": "Feature", "properties": { "city": "Scottsburg", "latitude": 38.6854, "longitude": -85.7915, "name": "Wendy's", "province": "IN" }, "geometry": { "type": "Point", "coordinates": [ -85.7915, 38.6854 ] } },
{ "type": "Feature", "properties": { "city": "Litchfield", "latitude": 39.178908, "longitude": -89.667812, "name": "Wendy's", "province": "IL" }, "geometry": { "type": "Point", "coordinates": [ -89.667812, 39.178908 ] } },
{ "type": "Feature", "properties": { "city": "Litchfield", "latitude": 39.17838, "longitude": -89.66894, "name": "McDonald's", "province": "IL" }, "geometry": { "type": "Point", "coordinates": [ -89.66894, 39.17838 ] } },
{ "type": "Feature", "properties": { "city": "Litchfield", "latitude": 39.179074, "longitude": -89.66839, "name": "Taco Bell", "province": "IL" }, "geometry": { "type": "Point", "coordinates": [ -89.66839, 39.179074 ] } },
{ "type": "Feature", "properties": { "city": "Litchfield", "latitude": 39.175855, "longitude": -89.675151, "name": "Jack In The Box", "province": "IL" }, "geometry": { "type": "Point", "coordinates": [ -89.675151, 39.175855 ] } },
{ "type": "Feature", "properties": { "city": "Litchfield", "latitude": 39.17591, "longitude": -89.675037, "name": "Burger King", "province": "IL" }, "geometry": { "type": "Point", "coordinates": [ -89.675037, 39.17591 ] } },
{ "type": "Feature", "properties": { "city": "Marshall", "latitude": 39.41753, "longitude": -87.69207, "name": "Burger King", "province": "IL" }, "geometry": { "type": "Point", "coordinates": [ -87.69207, 39.41753 ] } },
{ "type": "Feature", "properties": { "city": "West Lafayette", "latitude": 40.45299, "longitude": -86.92139, "name": "Burger King", "province": "IN" }, "geometry": { "type": "Point", "coordinates": [ -86.92139, 40.45299 ] } },
{ "type": "Feature", "properties": { "city": "Bedford", "latitude": 38.860945, "longitude": -86.517296, "name": "Wendy's", "province": "IN" }, "geometry": { "type": "Point", "coordinates": [ -86.517296, 38.860945 ] } },
{ "type": "Feature", "properties": { "city": "Bedford", "latitude": 38.84594, "longitude": -86.51478, "name": "Arby's", "province": "IN" }, "geometry": { "type": "Point", "coordinates": [ -86.51478, 38.84594 ] } },
{ "type": "Feature", "properties": { "city": "Angola", "latitude": 41.65625, "longitude": -84.99869, "name": "Burger King", "province": "IN" }, "geometry": { "type": "Point", "coordinates": [ -84.99869, 41.65625 ] } },
{ "type": "Feature", "properties": { "city": "Bedford", "latitude": 38.86139, "longitude": -86.50716, "name": "Burger King", "province": "IN" }, "geometry": { "type": "Point", "coordinates": [ -86.50716, 38.86139 ] } },
{ "type": "Feature", "properties": { "city": "West Lafayette", "latitude": 40.45282, "longitude": -86.91764, "name": "McDonald's", "province": "IN" }, "geometry": { "type": "Point", "coordinates": [ -86.91764, 40.45282 ] } },
{ "type": "Feature", "properties": { "city": "West Lafayette", "latitude": 40.422445, "longitude": -86.905196, "name": "McDonald's", "province": "IN" }, "geometry": { "type": "Point", "coordinates": [ -86.905196, 40.422445 ] } },
{ "type": "Feature", "properties": { "city": "Decatur", "latitude": 40.832525, "longitude": -84.937673, "name": "Wendy's", "province": "IN" }, "geometry": { "type": "Point", "coordinates": [ -84.937673, 40.832525 ] } },
{ "type": "Feature", "properties": { "city": "Decatur", "latitude": 40.832543, "longitude": -84.937674, "name": "McDonald's", "province": "IN" }, "geometry": { "type": "Point", "coordinates": [ -84.937674, 40.832543 ] } },